[{"cod_ine_prov":25,"cod_ine_muni":2,"provincia":"Lleida","municipio":"Àger","center_latitude":42.0028246,"center_longitude":0.76439490000007},{"cod_ine_prov":28,"cod_ine_muni":5,"provincia":"Madrid","municipio":"Alcalá de Henares","center_latitude":40.481663,"center_longitude":-3.36413619999996},{"cod_ine_prov":30,"cod_ine_muni":2,"provincia":"Murcia","municipio":"Abarán","center_latitude":38.2051397,"center_longitude":-1.39718089999997},{"cod_ine_prov":4,"cod_ine_muni":8,"provincia":"Almería","municipio":"Alcóntar","center_latitude":37.3358524,"center_longitude":-2.59694349999995},{"cod_ine_prov":4,"cod_ine_muni":86,"provincia":"Almería","municipio":"Sorbas","center_latitude":37.0984074,"center_longitude":-2.12635139999998},{"cod_ine_prov":11,"cod_ine_muni":4,"provincia":"Cádiz","municipio":"Algeciras","center_latitude":36.1297803,"center_longitude":-5.44769810000003},{"cod_ine_prov":11,"cod_ine_muni":5,"provincia":"Cádiz","municipio":"Algodonales","center_latitude":36.8809228,"center_longitude":-5.40577289999999},{"cod_ine_prov":18,"cod_ine_muni":12,"provincia":"Granada","municipio":"Algarinejo","center_latitude":37.324917,"center_longitude":-4.15884589999996},{"cod_ine_prov":18,"cod_ine_muni":13,"provincia":"Granada","municipio":"Alhama de Granada","center_latitude":37.0025184,"center_longitude":-3.98838869999997},{"cod_ine_prov":33,"cod_ine_muni":2,"provincia":"Asturias","municipio":"Aller","center_latitude":43.1,"center_longitude":-5.58333330000005},{"cod_ine_prov":7,"cod_ine_muni":3,"provincia":"Baleares","municipio":"Alcúdia","center_latitude":39.8523159,"center_longitude":3.12202730000001},{"cod_ine_prov":13,"cod_ine_muni":10,"provincia":"Ciudad Real","municipio":"Alhambra","center_latitude":38.8994522,"center_longitude":-3.05344590000004},{"cod_ine_prov":42,"cod_ine_muni":13,"provincia":"Soria","municipio":"Aldehuela de Periáñez","center_latitude":41.8082352,"center_longitude":-2.30649760000006},{"cod_ine_prov":42,"cod_ine_muni":173,"provincia":"Soria","municipio":"Soria","center_latitude":41.7635982,"center_longitude":-2.46492060000003},{"cod_ine_prov":6,"cod_ine_muni":7,"provincia":"Badajoz","municipio":"Alconchel","center_latitude":38.5166814,"center_longitude":-7.07087150000007},{"cod_ine_prov":10,"cod_ine_muni":17,"provincia":"Cáceres","municipio":"Alía","center_latitude":39.448834,"center_longitude":-5.2176541},{"cod_ine_prov":3,"cod_ine_muni":14,"provincia":"Alicante","municipio":"Alicante/Alacant","center_latitude":38.34521,"center_longitude":-0.480994499999952},{"cod_ine_prov":11,"cod_ine_muni":6,"provincia":"Cádiz","municipio":"Arcos de la Frontera","center_latitude":36.750779,"center_longitude":-5.81239479999999},{"cod_ine_prov":23,"cod_ine_muni":5,"provincia":"Jaén","municipio":"Andújar","center_latitude":38.0367498,"center_longitude":-4.05439160000003},{"cod_ine_prov":7,"cod_ine_muni":5,"provincia":"Baleares","municipio":"Andratx","center_latitude":39.570798,"center_longitude":2.4213651},{"cod_ine_prov":5,"cod_ine_muni":14,"provincia":"Ávila","municipio":"Arenas de San Pedro","center_latitude":40.2087167,"center_longitude":-5.09114069999998},{"cod_ine_prov":25,"cod_ine_muni":24,"provincia":"Lleida","municipio":"Alt Àneu","center_latitude":42.635288,"center_longitude":1.10748899999999},{"cod_ine_prov":15,"cod_ine_muni":2,"provincia":"A Coruña","municipio":"Ames","center_latitude":42.9,"center_longitude":-8.6333333},{"cod_ine_prov":46,"cod_ine_muni":17,"provincia":"Valencia","municipio":"Alzira","center_latitude":39.1515899,"center_longitude":-0.440463700000009},{"cod_ine_prov":11,"cod_ine_muni":7,"provincia":"Cádiz","municipio":"Barbate","center_latitude":36.192816,"center_longitude":-5.918903},{"cod_ine_prov":21,"cod_ine_muni":8,"provincia":"Huelva","municipio":"Aroche","center_latitude":37.9442586,"center_longitude":-6.95426499999996},{"cod_ine_prov":23,"cod_ine_muni":6,"provincia":"Jaén","municipio":"Arjona","center_latitude":37.936483,"center_longitude":-4.05489060000002},{"cod_ine_prov":29,"cod_ine_muni":25,"provincia":"Málaga","municipio":"Benalmádena","center_latitude":36.595234,"center_longitude":-4.57336810000004},{"cod_ine_prov":38,"cod_ine_muni":5,"provincia":"Santa Cruz de Tenerife","municipio":"Arico","center_latitude":28.1777999,"center_longitude":-16.4794096000001},{"cod_ine_prov":38,"cod_ine_muni":6,"provincia":"Santa Cruz de Tenerife","municipio":"Arona","center_latitude":28.1004729,"center_longitude":-16.6806579},{"cod_ine_prov":39,"cod_ine_muni":5,"provincia":"Cantabria","municipio":"Argoños","center_latitude":43.4580305,"center_longitude":-3.48592180000003},{"cod_ine_prov":16,"cod_ine_muni":27,"provincia":"Cuenca","municipio":"Barajas de Melo","center_latitude":40.1227307,"center_longitude":-2.91582189999997},{"cod_ine_prov":5,"cod_ine_muni":19,"provincia":"Ávila","municipio":"Ávila","center_latitude":40.6564225,"center_longitude":-4.7003224},{"cod_ine_prov":9,"cod_ine_muni":48,"provincia":"Burgos","municipio":"Belorado","center_latitude":42.4204081,"center_longitude":-3.18979609999997},{"cod_ine_prov":25,"cod_ine_muni":42,"provincia":"Lleida","municipio":"Baronia de Rialb (La)","center_latitude":41.974248,"center_longitude":1.17875900000001},{"cod_ine_prov":10,"cod_ine_muni":21,"provincia":"Cáceres","municipio":"Arroyo de la Luz","center_latitude":39.4863085,"center_longitude":-6.58178450000003},{"cod_ine_prov":18,"cod_ine_muni":32,"provincia":"Granada","municipio":"Bubión","center_latitude":36.9488258,"center_longitude":-3.3567415},{"cod_ine_prov":22,"cod_ine_muni":57,"provincia":"Huesca","municipio":"Bielsa","center_latitude":42.6338041,"center_longitude":0.218476600000031},{"cod_ine_prov":22,"cod_ine_muni":58,"provincia":"Huesca","municipio":"Bierge","center_latitude":42.1613342,"center_longitude":-0.0829718999999614},{"cod_ine_prov":22,"cod_ine_muni":59,"provincia":"Huesca","municipio":"Biescas","center_latitude":42.627975,"center_longitude":-0.324698399999988},{"cod_ine_prov":16,"cod_ine_muni":35,"provincia":"Cuenca","municipio":"Beteta","center_latitude":40.5723982,"center_longitude":-2.07559500000002},{"cod_ine_prov":19,"cod_ine_muni":53,"provincia":"Guadalajara","municipio":"Brihuega","center_latitude":40.7596464,"center_longitude":-2.87050850000003},{"cod_ine_prov":42,"cod_ine_muni":45,"provincia":"Soria","municipio":"Cabrejas del Pinar","center_latitude":41.7976741,"center_longitude":-2.84968379999998},{"cod_ine_prov":10,"cod_ine_muni":32,"provincia":"Cáceres","municipio":"Brozas","center_latitude":39.6120781,"center_longitude":-6.7779352},{"cod_ine_prov":48,"cod_ine_muni":18,"provincia":"Vizcaya","municipio":"Berriatua","center_latitude":43.3166667,"center_longitude":-2.46666670000002},{"cod_ine_prov":46,"cod_ine_muni":55,"provincia":"Valencia","municipio":"Beniarjó","center_latitude":38.9322929,"center_longitude":-0.187494099999981},{"cod_ine_prov":21,"cod_ine_muni":17,"provincia":"Huelva","municipio":"Calañas","center_latitude":37.6548141,"center_longitude":-6.8786824},{"cod_ine_prov":21,"cod_ine_muni":21,"provincia":"Huelva","municipio":"Cartaya","center_latitude":37.2831395,"center_longitude":-7.15497890000006},{"cod_ine_prov":29,"cod_ine_muni":38,"provincia":"Málaga","municipio":"Cártama","center_latitude":36.7113126,"center_longitude":-4.63074099999994},{"cod_ine_prov":29,"cod_ine_muni":40,"provincia":"Málaga","municipio":"Casarabonela","center_latitude":36.785242,"center_longitude":-4.84216749999996},{"cod_ine_prov":22,"cod_ine_muni":72,"provincia":"Huesca","municipio":"Caldearenas","center_latitude":42.3969894,"center_longitude":-0.499961900000017},{"cod_ine_prov":50,"cod_ine_muni":67,"provincia":"Zaragoza","municipio":"Calatayud","center_latitude":41.3543224,"center_longitude":-1.64700859999994},{"cod_ine_prov":7,"cod_ine_muni":11,"provincia":"Baleares","municipio":"Calvià","center_latitude":39.5652375,"center_longitude":2.50421649999998},{"cod_ine_prov":7,"cod_ine_muni":14,"provincia":"Baleares","municipio":"Capdepera","center_latitude":39.7013281,"center_longitude":3.43556130000002},{"cod_ine_prov":45,"cod_ine_muni":28,"provincia":"Toledo","municipio":"Calera y Chozas","center_latitude":39.8814354,"center_longitude":-4.97860839999998},{"cod_ine_prov":17,"cod_ine_muni":32,"provincia":"Girona","municipio":"Cadaqués","center_latitude":42.2889571,"center_longitude":3.27838880000002},{"cod_ine_prov":6,"cod_ine_muni":26,"provincia":"Badajoz","municipio":"Calera de León","center_latitude":38.1071173,"center_longitude":-6.33679359999996},{"cod_ine_prov":6,"cod_ine_muni":33,"provincia":"Badajoz","municipio":"Casas de Don Pedro","center_latitude":39.1056343,"center_longitude":-5.32863470000007},{"cod_ine_prov":10,"cod_ine_muni":45,"provincia":"Cáceres","municipio":"Cañaveral","center_latitude":39.7891625,"center_longitude":-6.39441149999993},{"cod_ine_prov":10,"cod_ine_muni":49,"provincia":"Cáceres","municipio":"Casar de Cáceres","center_latitude":39.5615594,"center_longitude":-6.41681140000003},{"cod_ine_prov":27,"cod_ine_muni":9,"provincia":"Lugo","municipio":"Carballedo","center_latitude":42.5167,"center_longitude":-7.83332999999993},{"cod_ine_prov":30,"cod_ine_muni":15,"provincia":"Murcia","municipio":"Caravaca de la Cruz","center_latitude":38.1089945,"center_longitude":-1.86603300000002},{"cod_ine_prov":14,"cod_ine_muni":21,"provincia":"Córdoba","municipio":"Córdoba","center_latitude":37.8847267,"center_longitude":-4.77915170000006},{"cod_ine_prov":21,"cod_ine_muni":25,"provincia":"Huelva","municipio":"Cortegana","center_latitude":37.9093748,"center_longitude":-6.8206156},{"cod_ine_prov":23,"cod_ine_muni":25,"provincia":"Jaén","municipio":"Castellar","center_latitude":38.2562108,"center_longitude":-3.13192500000002},{"cod_ine_prov":23,"cod_ine_muni":28,"provincia":"Jaén","municipio":"Cazorla","center_latitude":37.9105506,"center_longitude":-3.00216679999994},{"cod_ine_prov":23,"cod_ine_muni":29,"provincia":"Jaén","municipio":"Chiclana de Segura","center_latitude":38.3114725,"center_longitude":-3.04218820000006},{"cod_ine_prov":29,"cod_ine_muni":43,"provincia":"Málaga","municipio":"Colmenar","center_latitude":36.9050224,"center_longitude":-4.33521229999997},{"cod_ine_prov":41,"cod_ine_muni":32,"provincia":"Sevilla","municipio":"Cazalla de la Sierra","center_latitude":37.9295956,"center_longitude":-5.7607994},{"cod_ine_prov":41,"cod_ine_muni":33,"provincia":"Sevilla","municipio":"Constantina","center_latitude":37.8722721,"center_longitude":-5.61911510000004},{"cod_ine_prov":41,"cod_ine_muni":37,"provincia":"Sevilla","municipio":"Corrales (Los)","center_latitude":37.0973188,"center_longitude":-4.98290950000001},{"cod_ine_prov":22,"cod_ine_muni":81,"provincia":"Huesca","municipio":"Casbas de Huesca","center_latitude":42.1562723,"center_longitude":-0.140407800000048},{"cod_ine_prov":33,"cod_ine_muni":18,"provincia":"Asturias","municipio":"Coaña","center_latitude":43.5153959,"center_longitude":-6.7493442},{"cod_ine_prov":7,"cod_ine_muni":15,"provincia":"Baleares","municipio":"Ciutadella de Menorca","center_latitude":40.0023234,"center_longitude":3.83926240000005},{"cod_ine_prov":2,"cod_ine_muni":29,"provincia":"Albacete","municipio":"Chinchilla de Monte-Aragón","center_latitude":38.9186214,"center_longitude":-1.72275809999996},{"cod_ine_prov":13,"cod_ine_muni":35,"provincia":"Ciudad Real","municipio":"Corral de Calatrava","center_latitude":38.8587009,"center_longitude":-4.08098749999999},{"cod_ine_prov":19,"cod_ine_muni":92,"provincia":"Guadalajara","municipio":"Cogolludo","center_latitude":40.9469955,"center_longitude":-3.08877619999998},{"cod_ine_prov":19,"cod_ine_muni":103,"provincia":"Guadalajara","municipio":"Checa","center_latitude":40.5867066,"center_longitude":-1.78979849999996},{"cod_ine_prov":45,"cod_ine_muni":54,"provincia":"Toledo","municipio":"Corral de Almaguer","center_latitude":39.7601559,"center_longitude":-3.16682900000001},{"cod_ine_prov":34,"cod_ine_muni":56,"provincia":"Palencia","municipio":"Cervera de Pisuerga","center_latitude":42.8657604,"center_longitude":-4.49913530000003},{"cod_ine_prov":37,"cod_ine_muni":107,"provincia":"Salamanca","municipio":"Ciudad Rodrigo","center_latitude":40.5971513,"center_longitude":-6.52277490000006},{"cod_ine_prov":8,"cod_ine_muni":68,"provincia":"Barcelona","municipio":"Cervelló","center_latitude":41.3961517,"center_longitude":1.95762070000001},{"cod_ine_prov":10,"cod_ine_muni":56,"provincia":"Cáceres","municipio":"Casas de Millán","center_latitude":39.8155861,"center_longitude":-6.33087560000001},{"cod_ine_prov":10,"cod_ine_muni":67,"provincia":"Cáceres","municipio":"Coria","center_latitude":39.983582,"center_longitude":-6.53972709999994},{"cod_ine_prov":15,"cod_ine_muni":22,"provincia":"A Coruña","municipio":"Cedeira","center_latitude":43.66142,"center_longitude":-8.05546939999999},{"cod_ine_prov":15,"cod_ine_muni":23,"provincia":"A Coruña","municipio":"Cee","center_latitude":42.9554087,"center_longitude":-9.18974930000002},{"cod_ine_prov":15,"cod_ine_muni":29,"provincia":"A Coruña","municipio":"Coristanco","center_latitude":43.1904805,"center_longitude":-8.76094890000002},{"cod_ine_prov":27,"cod_ine_muni":13,"provincia":"Lugo","municipio":"Cervo","center_latitude":43.6820863,"center_longitude":-7.44769020000001},{"cod_ine_prov":28,"cod_ine_muni":43,"provincia":"Madrid","municipio":"Colmenar de Oreja","center_latitude":40.107583,"center_longitude":-3.38769300000001},{"cod_ine_prov":28,"cod_ine_muni":45,"provincia":"Madrid","municipio":"Colmenar Viejo","center_latitude":40.6589526,"center_longitude":-3.76604320000001},{"cod_ine_prov":4,"cod_ine_muni":46,"provincia":"Almería","municipio":"Fondón","center_latitude":36.979417,"center_longitude":-2.85835580000003},{"cod_ine_prov":14,"cod_ine_muni":26,"provincia":"Córdoba","municipio":"Espiel","center_latitude":38.1886516,"center_longitude":-5.01820190000001},{"cod_ine_prov":18,"cod_ine_muni":56,"provincia":"Granada","municipio":"Cúllar","center_latitude":37.5836815,"center_longitude":-2.57628199999999},{"cod_ine_prov":18,"cod_ine_muni":64,"provincia":"Granada","municipio":"Dehesas de Guadix","center_latitude":37.5886792,"center_longitude":-3.10227839999993},{"cod_ine_prov":18,"cod_ine_muni":68,"provincia":"Granada","municipio":"Dílar","center_latitude":37.0749919,"center_longitude":-3.60162430000003},{"cod_ine_prov":18,"cod_ine_muni":69,"provincia":"Granada","municipio":"Dólar","center_latitude":37.1800367,"center_longitude":-2.98958930000003},{"cod_ine_prov":18,"cod_ine_muni":76,"provincia":"Granada","municipio":"Fonelas","center_latitude":37.4134412,"center_longitude":-3.1733438},{"cod_ine_prov":29,"cod_ine_muni":46,"provincia":"Málaga","municipio":"Cortes de la Frontera","center_latitude":36.6169039,"center_longitude":-5.34268120000002},{"cod_ine_prov":33,"cod_ine_muni":21,"provincia":"Asturias","municipio":"Cudillero","center_latitude":43.5609542,"center_longitude":-6.14499669999998},{"cod_ine_prov":7,"cod_ine_muni":24,"provincia":"Baleares","municipio":"Formentera","center_latitude":38.6964006,"center_longitude":1.45313550000003},{"cod_ine_prov":16,"cod_ine_muni":78,"provincia":"Cuenca","municipio":"Cuenca","center_latitude":40.0718353,"center_longitude":-2.13400530000001},{"cod_ine_prov":43,"cod_ine_muni":60,"provincia":"Tarragona","municipio":"Flix","center_latitude":41.2274423,"center_longitude":0.544695600000068},{"cod_ine_prov":10,"cod_ine_muni":69,"provincia":"Cáceres","municipio":"Cumbre (La)","center_latitude":39.4049046,"center_longitude":-5.97731909999993},{"cod_ine_prov":10,"cod_ine_muni":70,"provincia":"Cáceres","municipio":"Deleitosa","center_latitude":39.6431018,"center_longitude":-5.64574340000001},{"cod_ine_prov":15,"cod_ine_muni":30,"provincia":"A Coruña","municipio":"Coruña (A)","center_latitude":43.3708731,"center_longitude":-8.39583500000003},{"cod_ine_prov":27,"cod_ine_muni":19,"provincia":"Lugo","municipio":"Foz","center_latitude":43.5725022,"center_longitude":-7.2613973},{"cod_ine_prov":36,"cod_ine_muni":12,"provincia":"Pontevedra","municipio":"Cotobade","center_latitude":42.4666667,"center_longitude":-8.46666670000002},{"cod_ine_prov":20,"cod_ine_muni":67,"provincia":"Guipúzcoa","municipio":"Errenteria","center_latitude":43.3113068,"center_longitude":-1.9008963},{"cod_ine_prov":12,"cod_ine_muni":51,"provincia":"Castellón","municipio":"Culla","center_latitude":40.3377197,"center_longitude":-0.165796900000032},{"cod_ine_prov":14,"cod_ine_muni":29,"provincia":"Córdoba","municipio":"Fuente Obejuna","center_latitude":38.2667497,"center_longitude":-5.41983389999996},{"cod_ine_prov":35,"cod_ine_muni":9,"provincia":"Las Palmas","municipio":"Gáldar","center_latitude":28.144045,"center_longitude":-15.6503557},{"cod_ine_prov":13,"cod_ine_muni":42,"provincia":"Ciudad Real","municipio":"Fuencaliente","center_latitude":38.4066382,"center_longitude":-4.30445880000002},{"cod_ine_prov":25,"cod_ine_muni":96,"provincia":"Lleida","municipio":"Fuliola (La)","center_latitude":41.715031,"center_longitude":1.01712769999995},{"cod_ine_prov":6,"cod_ine_muni":53,"provincia":"Badajoz","municipio":"Fuente del Arco","center_latitude":38.152025,"center_longitude":-5.89656430000002},{"cod_ine_prov":21,"cod_ine_muni":35,"provincia":"Huelva","municipio":"Gibraleón","center_latitude":37.3749476,"center_longitude":-6.97014119999994},{"cod_ine_prov":18,"cod_ine_muni":85,"provincia":"Granada","municipio":"Gor","center_latitude":37.3695204,"center_longitude":-2.96944400000007},{"cod_ine_prov":21,"cod_ine_muni":23,"provincia":"Huelva","municipio":"Cerro de Andévalo (El)","center_latitude":37.7040131606454,"center_longitude":-7.03026595291401},{"cod_ine_prov":41,"cod_ine_muni":45,"provincia":"Sevilla","municipio":"Gerena","center_latitude":37.5255332,"center_longitude":-6.15765429999999},{"cod_ine_prov":22,"cod_ine_muni":117,"provincia":"Huesca","municipio":"Graus","center_latitude":42.1927384,"center_longitude":0.338909699999931},{"cod_ine_prov":10,"cod_ine_muni":77,"provincia":"Cáceres","municipio":"Garciaz","center_latitude":39.4132886,"center_longitude":-5.62728630000004},{"cod_ine_prov":10,"cod_ine_muni":82,"provincia":"Cáceres","municipio":"Garrovillas de Alconétar","center_latitude":39.7097537,"center_longitude":-6.54905970000004},{"cod_ine_prov":14,"cod_ine_muni":35,"provincia":"Córdoba","municipio":"Hinojosa del Duque","center_latitude":38.5009912,"center_longitude":-5.14833279999993},{"cod_ine_prov":23,"cod_ine_muni":43,"provincia":"Jaén","municipio":"Hornos","center_latitude":38.2167855,"center_longitude":-2.72024699999997},{"cod_ine_prov":41,"cod_ine_muni":49,"provincia":"Sevilla","municipio":"Guillena","center_latitude":37.5390229,"center_longitude":-6.05226790000006},{"cod_ine_prov":35,"cod_ine_muni":10,"provincia":"Las Palmas","municipio":"Haría","center_latitude":29.1465119,"center_longitude":-13.4976965},{"cod_ine_prov":45,"cod_ine_muni":71,"provincia":"Toledo","municipio":"Guardia (La)","center_latitude":39.7855714,"center_longitude":-3.47707289999994},{"cod_ine_prov":45,"cod_ine_muni":72,"provincia":"Toledo","municipio":"Herencias (Las)","center_latitude":39.8694911,"center_longitude":-4.92023749999998},{"cod_ine_prov":9,"cod_ine_muni":155,"provincia":"Burgos","municipio":"Haza","center_latitude":41.6214198,"center_longitude":-3.82945229999996},{"cod_ine_prov":25,"cod_ine_muni":903,"provincia":"Lleida","municipio":"Guingueta d'Àneu (La)","center_latitude":42.5931733,"center_longitude":1.13120500000002},{"cod_ine_prov":6,"cod_ine_muni":62,"provincia":"Badajoz","municipio":"Helechosa de los Montes","center_latitude":39.3113755,"center_longitude":-4.9092134},{"cod_ine_prov":10,"cod_ine_muni":94,"provincia":"Cáceres","municipio":"Herrera de Alcántara","center_latitude":39.6379624,"center_longitude":-7.40579030000004},{"cod_ine_prov":15,"cod_ine_muni":13,"provincia":"A Coruña","municipio":"Brión","center_latitude":42.867,"center_longitude":-8.678},{"cod_ine_prov":36,"cod_ine_muni":22,"provincia":"Pontevedra","municipio":"Grove (O)","center_latitude":42.4936547,"center_longitude":-8.86533959999997},{"cod_ine_prov":11,"cod_ine_muni":21,"provincia":"Cádiz","municipio":"Jimena de la Frontera","center_latitude":36.4340437,"center_longitude":-5.45347949999996},{"cod_ine_prov":23,"cod_ine_muni":48,"provincia":"Jaén","municipio":"Iznatoraf","center_latitude":38.157439,"center_longitude":-3.03291379999996},{"cod_ine_prov":14,"cod_ine_muni":38,"provincia":"Córdoba","municipio":"Lucena","center_latitude":37.4087293,"center_longitude":-4.48559780000005},{"cod_ine_prov":14,"cod_ine_muni":39,"provincia":"Córdoba","municipio":"Luque","center_latitude":37.5593227,"center_longitude":-4.27652290000003},{"cod_ine_prov":21,"cod_ine_muni":44,"provincia":"Huelva","municipio":"Lepe","center_latitude":37.2543229,"center_longitude":-7.20334809999997},{"cod_ine_prov":23,"cod_ine_muni":47,"provincia":"Jaén","municipio":"Iruela (La)","center_latitude":37.9653874871574,"center_longitude":-2.92011211513489},{"cod_ine_prov":23,"cod_ine_muni":50,"provincia":"Jaén","municipio":"Jaén","center_latitude":37.7657389,"center_longitude":-3.78951770000003},{"cod_ine_prov":41,"cod_ine_muni":53,"provincia":"Sevilla","municipio":"Lebrija","center_latitude":36.9195115,"center_longitude":-6.07836700000007},{"cod_ine_prov":22,"cod_ine_muni":130,"provincia":"Huesca","municipio":"Jaca","center_latitude":42.5710112,"center_longitude":-0.549453099999937},{"cod_ine_prov":22,"cod_ine_muni":150,"provincia":"Huesca","municipio":"Loporzano","center_latitude":42.1613084,"center_longitude":-0.324033999999983},{"cod_ine_prov":50,"cod_ine_muni":148,"provincia":"Zaragoza","municipio":"Luesia","center_latitude":42.3698647,"center_longitude":-1.02166109999996},{"cod_ine_prov":50,"cod_ine_muni":151,"provincia":"Zaragoza","municipio":"Luna","center_latitude":42.1664984,"center_longitude":-0.931854599999951},{"cod_ine_prov":33,"cod_ine_muni":36,"provincia":"Asturias","municipio":"Llanes","center_latitude":43.4195333,"center_longitude":-4.75091359999999},{"cod_ine_prov":9,"cod_ine_muni":194,"provincia":"Burgos","municipio":"Lerma","center_latitude":42.0258243,"center_longitude":-3.75595959999998},{"cod_ine_prov":17,"cod_ine_muni":92,"provincia":"Girona","municipio":"Llançà","center_latitude":42.3651845,"center_longitude":3.16121720000001},{"cod_ine_prov":10,"cod_ine_muni":103,"provincia":"Cáceres","municipio":"Jaraicejo","center_latitude":39.6670399,"center_longitude":-5.81292600000006},{"cod_ine_prov":10,"cod_ine_muni":110,"provincia":"Cáceres","municipio":"Losar de la Vera","center_latitude":40.123323,"center_longitude":-5.60515699999996},{"cod_ine_prov":10,"cod_ine_muni":116,"provincia":"Cáceres","municipio":"Malpartida de Plasencia","center_latitude":39.9792923,"center_longitude":-6.04853090000006},{"cod_ine_prov":28,"cod_ine_muni":79,"provincia":"Madrid","municipio":"Madrid","center_latitude":40.4166909,"center_longitude":-3.70034540000006},{"cod_ine_prov":31,"cod_ine_muni":144,"provincia":"Navarra","municipio":"Larraun","center_latitude":42.9934,"center_longitude":-1.93924349999998},{"cod_ine_prov":3,"cod_ine_muni":83,"provincia":"Alicante","municipio":"Jijona/Xixona","center_latitude":38.5400636,"center_longitude":-0.507773899999961},{"cod_ine_prov":23,"cod_ine_muni":59,"provincia":"Jaén","municipio":"Marmolejo","center_latitude":38.0443267,"center_longitude":-4.17060739999999},{"cod_ine_prov":23,"cod_ine_muni":60,"provincia":"Jaén","municipio":"Martos","center_latitude":37.7227776,"center_longitude":-3.96625849999998},{"cod_ine_prov":45,"cod_ine_muni":96,"provincia":"Toledo","municipio":"Mazarambroz","center_latitude":39.6942069,"center_longitude":-4.02127889999997},{"cod_ine_prov":10,"cod_ine_muni":119,"provincia":"Cáceres","municipio":"Membrío","center_latitude":39.5270892,"center_longitude":-7.0564177},{"cod_ine_prov":48,"cod_ine_muni":60,"provincia":"Vizcaya","municipio":"Markina-Xemein","center_latitude":43.270604,"center_longitude":-2.49715530000003},{"cod_ine_prov":48,"cod_ine_muni":64,"provincia":"Vizcaya","municipio":"Meñaka","center_latitude":43.364464,"center_longitude":-2.80179499999997},{"cod_ine_prov":18,"cod_ine_muni":134,"provincia":"Granada","municipio":"Monachil","center_latitude":37.1320894,"center_longitude":-3.5394695},{"cod_ine_prov":18,"cod_ine_muni":135,"provincia":"Granada","municipio":"Montefrío","center_latitude":37.3209691,"center_longitude":-4.01136369999995},{"cod_ine_prov":18,"cod_ine_muni":141,"provincia":"Granada","municipio":"Murtas","center_latitude":36.8873746,"center_longitude":-3.10897069999999},{"cod_ine_prov":50,"cod_ine_muni":185,"provincia":"Zaragoza","municipio":"Murillo de Gállego","center_latitude":42.3365064,"center_longitude":-0.754091399999993},{"cod_ine_prov":33,"cod_ine_muni":37,"provincia":"Asturias","municipio":"Mieres","center_latitude":43.25,"center_longitude":-5.76666699999998},{"cod_ine_prov":2,"cod_ine_muni":49,"provincia":"Albacete","municipio":"Molinicos","center_latitude":38.4679384,"center_longitude":-2.23786960000007},{"cod_ine_prov":13,"cod_ine_muni":55,"provincia":"Ciudad Real","municipio":"Mestanza","center_latitude":38.574522,"center_longitude":-4.07123320000005},{"cod_ine_prov":13,"cod_ine_muni":57,"provincia":"Ciudad Real","municipio":"Montiel","center_latitude":38.6963419,"center_longitude":-2.8621435},{"cod_ine_prov":42,"cod_ine_muni":65,"provincia":"Soria","municipio":"Cirujales del Río","center_latitude":41.8669385,"center_longitude":-2.3259544},{"cod_ine_prov":6,"cod_ine_muni":85,"provincia":"Badajoz","municipio":"Monesterio","center_latitude":38.0867796,"center_longitude":-6.27429359999996},{"cod_ine_prov":6,"cod_ine_muni":86,"provincia":"Badajoz","municipio":"Montemolín","center_latitude":38.1551228,"center_longitude":-6.21454300000005},{"cod_ine_prov":6,"cod_ine_muni":87,"provincia":"Badajoz","municipio":"Monterrubio de la Serena","center_latitude":38.5892014,"center_longitude":-5.44348519999994},{"cod_ine_prov":10,"cod_ine_muni":131,"provincia":"Cáceres","municipio":"Navalmoral de la Mata","center_latitude":39.8875651,"center_longitude":-5.56055400000002},{"cod_ine_prov":15,"cod_ine_muni":47,"provincia":"A Coruña","municipio":"Mesía","center_latitude":43.1134923,"center_longitude":-8.27210880000007},{"cod_ine_prov":15,"cod_ine_muni":53,"provincia":"A Coruña","municipio":"Muros","center_latitude":42.774323,"center_longitude":-9.05750920000003},{"cod_ine_prov":30,"cod_ine_muni":27,"provincia":"Murcia","municipio":"Molina de Segura","center_latitude":38.0509208,"center_longitude":-1.21099219999996},{"cod_ine_prov":30,"cod_ine_muni":30,"provincia":"Murcia","municipio":"Murcia","center_latitude":37.9834449,"center_longitude":-1.12988970000004},{"cod_ine_prov":11,"cod_ine_muni":24,"provincia":"Cádiz","municipio":"Olvera","center_latitude":36.9352514,"center_longitude":-5.26768800000002},{"cod_ine_prov":23,"cod_ine_muni":65,"provincia":"Jaén","municipio":"Orcera","center_latitude":38.3173831,"center_longitude":-2.6649122},{"cod_ine_prov":41,"cod_ine_muni":73,"provincia":"Sevilla","municipio":"Pedroso (El)","center_latitude":37.8422199,"center_longitude":-5.76351539999996},{"cod_ine_prov":35,"cod_ine_muni":14,"provincia":"Las Palmas","municipio":"Oliva (La)","center_latitude":28.610399,"center_longitude":-13.9288028999999},{"cod_ine_prov":35,"cod_ine_muni":16,"provincia":"Las Palmas","municipio":"Palmas de Gran Canaria (Las)","center_latitude":28.1248227,"center_longitude":-15.4300065},{"cod_ine_prov":2,"cod_ine_muni":58,"provincia":"Albacete","municipio":"Paterna del Madera","center_latitude":38.5972247,"center_longitude":-2.34610980000002},{"cod_ine_prov":45,"cod_ine_muni":125,"provincia":"Toledo","municipio":"Oropesa","center_latitude":39.919145,"center_longitude":-5.17341490000001},{"cod_ine_prov":9,"cod_ine_muni":238,"provincia":"Burgos","municipio":"Oña","center_latitude":42.734782,"center_longitude":-3.41407170000002},{"cod_ine_prov":25,"cod_ine_muni":151,"provincia":"Lleida","municipio":"Olius","center_latitude":42.0095724,"center_longitude":1.565473},{"cod_ine_prov":6,"cod_ine_muni":93,"provincia":"Badajoz","municipio":"Oliva de la Frontera","center_latitude":38.2760613,"center_longitude":-6.91992019999998},{"cod_ine_prov":6,"cod_ine_muni":95,"provincia":"Badajoz","municipio":"Olivenza","center_latitude":38.6816461,"center_longitude":-7.10151589999998},{"cod_ine_prov":15,"cod_ine_muni":57,"provincia":"A Coruña","municipio":"Noia","center_latitude":42.7852515,"center_longitude":-8.88830910000001},{"cod_ine_prov":15,"cod_ine_muni":58,"provincia":"A Coruña","municipio":"Oleiros","center_latitude":43.3334964,"center_longitude":-8.31361820000006},{"cod_ine_prov":15,"cod_ine_muni":59,"provincia":"A Coruña","municipio":"Ordes","center_latitude":43.0767455,"center_longitude":-8.40774609999994},{"cod_ine_prov":27,"cod_ine_muni":16,"provincia":"Lugo","municipio":"Chantada","center_latitude":42.6086738,"center_longitude":-7.77346809999995},{"cod_ine_prov":36,"cod_ine_muni":36,"provincia":"Pontevedra","municipio":"Oia","center_latitude":42.0030664,"center_longitude":-8.87521459999994},{"cod_ine_prov":41,"cod_ine_muni":77,"provincia":"Sevilla","municipio":"Puebla de Cazalla (La)","center_latitude":37.2244134,"center_longitude":-5.31226960000004},{"cod_ine_prov":33,"cod_ine_muni":51,"provincia":"Asturias","municipio":"Pravia","center_latitude":43.4900406,"center_longitude":-6.11201729999993},{"cod_ine_prov":7,"cod_ine_muni":42,"provincia":"Baleares","municipio":"Pollença","center_latitude":39.8777548,"center_longitude":3.01719300000002},{"cod_ine_prov":45,"cod_ine_muni":133,"provincia":"Toledo","municipio":"Polán","center_latitude":39.789124,"center_longitude":-4.16820059999998},{"cod_ine_prov":17,"cod_ine_muni":140,"provincia":"Girona","municipio":"Port de la Selva (El)","center_latitude":42.3365934,"center_longitude":3.20368840000003},{"cod_ine_prov":6,"cod_ine_muni":102,"provincia":"Badajoz","municipio":"Puebla de Alcocer","center_latitude":38.9852092,"center_longitude":-5.25793859999999},{"cod_ine_prov":6,"cod_ine_muni":105,"provincia":"Badajoz","municipio":"Puebla del Maestre","center_latitude":38.0845572,"center_longitude":-6.07957009999996},{"cod_ine_prov":6,"cod_ine_muni":902,"provincia":"Badajoz","municipio":"Pueblonuevo del Guadiana","center_latitude":38.923089,"center_longitude":-6.75560429999996},{"cod_ine_prov":15,"cod_ine_muni":68,"provincia":"A Coruña","municipio":"Ponteceso","center_latitude":43.2426933,"center_longitude":-8.90096500000004},{"cod_ine_prov":15,"cod_ine_muni":69,"provincia":"A Coruña","municipio":"Pontedeume","center_latitude":43.4025778,"center_longitude":-8.15269060000003},{"cod_ine_prov":15,"cod_ine_muni":70,"provincia":"A Coruña","municipio":"Pontes de García Rodríguez (As)","center_latitude":43.4493141,"center_longitude":-7.85270539999999},{"cod_ine_prov":28,"cod_ine_muni":109,"provincia":"Madrid","municipio":"Pelayos de la Presa","center_latitude":40.3595374,"center_longitude":-4.33413849999999},{"cod_ine_prov":12,"cod_ine_muni":91,"provincia":"Castellón","municipio":"Portell de Morella","center_latitude":40.5326852,"center_longitude":-0.262054600000056},{"cod_ine_prov":11,"cod_ine_muni":30,"provincia":"Cádiz","municipio":"Rota","center_latitude":36.6169844,"center_longitude":-6.35820160000003},{"cod_ine_prov":14,"cod_ine_muni":58,"provincia":"Córdoba","municipio":"Rute","center_latitude":37.3258655,"center_longitude":-4.37130070000001},{"cod_ine_prov":21,"cod_ine_muni":62,"provincia":"Huelva","municipio":"Rosal de la Frontera","center_latitude":37.9677977,"center_longitude":-7.22052680000002},{"cod_ine_prov":29,"cod_ine_muni":84,"provincia":"Málaga","municipio":"Ronda","center_latitude":36.7419619,"center_longitude":-5.16641189999996},{"cod_ine_prov":22,"cod_ine_muni":199,"provincia":"Huesca","municipio":"Sabiñánigo","center_latitude":42.5196948,"center_longitude":-0.365078600000061},{"cod_ine_prov":22,"cod_ine_muni":204,"provincia":"Huesca","municipio":"Sallent de Gállego","center_latitude":42.7720399,"center_longitude":-0.334784200000058},{"cod_ine_prov":47,"cod_ine_muni":134,"provincia":"Valladolid","municipio":"Roales de Campos","center_latitude":42.0304177,"center_longitude":-5.47572049999997},{"cod_ine_prov":17,"cod_ine_muni":152,"provincia":"Girona","municipio":"Roses","center_latitude":42.2629682,"center_longitude":3.17480499999999},{"cod_ine_prov":46,"cod_ine_muni":220,"provincia":"Valencia","municipio":"Sagunto/Sagunt","center_latitude":39.6743957,"center_longitude":-0.231256600000052},{"cod_ine_prov":11,"cod_ine_muni":33,"provincia":"Cádiz","municipio":"San Roque","center_latitude":36.2097481,"center_longitude":-5.38457170000004},{"cod_ine_prov":21,"cod_ine_muni":68,"provincia":"Huelva","municipio":"Santa Bárbara de Casa","center_latitude":37.7965531,"center_longitude":-7.18863339999996},{"cod_ine_prov":44,"cod_ine_muni":101,"provincia":"Teruel","municipio":"Ferreruela de Huerva","center_latitude":41.0635149,"center_longitude":-1.2331279},{"cod_ine_prov":35,"cod_ine_muni":19,"provincia":"Las Palmas","municipio":"San Bartolomé de Tirajana","center_latitude":27.924613,"center_longitude":-15.5730022},{"cod_ine_prov":35,"cod_ine_muni":20,"provincia":"Las Palmas","municipio":"San Nicolás de Tolentino","center_latitude":27.9902159,"center_longitude":-15.7811791},{"cod_ine_prov":38,"cod_ine_muni":23,"provincia":"Santa Cruz de Tenerife","municipio":"San Cristóbal de La Laguna","center_latitude":28.4881163,"center_longitude":-16.3147761},{"cod_ine_prov":38,"cod_ine_muni":36,"provincia":"Santa Cruz de Tenerife","municipio":"San Sebastián de la Gomera","center_latitude":28.0922245,"center_longitude":-17.1118739999999},{"cod_ine_prov":37,"cod_ine_muni":279,"provincia":"Salamanca","municipio":"Sancti-Spíritus","center_latitude":40.7051757,"center_longitude":-6.4009112},{"cod_ine_prov":15,"cod_ine_muni":77,"provincia":"A Coruña","municipio":"Santa Comba","center_latitude":43.0476999,"center_longitude":-8.81422640000005},{"cod_ine_prov":27,"cod_ine_muni":18,"provincia":"Lugo","municipio":"Fonsagrada (A)","center_latitude":43.1237515,"center_longitude":-7.06790969999997},{"cod_ine_prov":1,"cod_ine_muni":53,"provincia":"Álava","municipio":"San Millán/Donemiliaga","center_latitude":42.8747222,"center_longitude":-2.3761111},{"cod_ine_prov":9,"cod_ine_muni":130,"provincia":"Burgos","municipio":"Fresneña","center_latitude":42.4142547,"center_longitude":-3.13480340000001},{"cod_ine_prov":49,"cod_ine_muni":204,"provincia":"Zamora","municipio":"Santa María de Valverde","center_latitude":41.9352198,"center_longitude":-5.93429600000002},{"cod_ine_prov":10,"cod_ine_muni":169,"provincia":"Cáceres","municipio":"Santiago de Alcántara","center_latitude":39.6057937,"center_longitude":-7.24420499999997},{"cod_ine_prov":15,"cod_ine_muni":78,"provincia":"A Coruña","municipio":"Santiago de Compostela","center_latitude":42.8804471,"center_longitude":-8.54630339999994},{"cod_ine_prov":23,"cod_ine_muni":82,"provincia":"Jaén","municipio":"Siles","center_latitude":38.3873389,"center_longitude":-2.5813101},{"cod_ine_prov":23,"cod_ine_muni":904,"provincia":"Jaén","municipio":"Santiago-Pontones","center_latitude":38.1,"center_longitude":-2.54999999999995},{"cod_ine_prov":22,"cod_ine_muni":213,"provincia":"Huesca","municipio":"Sariñena","center_latitude":41.7921736,"center_longitude":-0.157241900000031},{"cod_ine_prov":33,"cod_ine_muni":66,"provincia":"Asturias","municipio":"Siero","center_latitude":43.3833333,"center_longitude":-5.64999999999998},{"cod_ine_prov":7,"cod_ine_muni":48,"provincia":"Baleares","municipio":"Sant Josep de sa Talaia","center_latitude":38.9217334,"center_longitude":1.29344319999996},{"cod_ine_prov":7,"cod_ine_muni":50,"provincia":"Baleares","municipio":"Sant Joan de Labritja","center_latitude":39.0778475,"center_longitude":1.51226959999997},{"cod_ine_prov":19,"cod_ine_muni":257,"provincia":"Guadalajara","municipio":"Sigüenza","center_latitude":41.0695947,"center_longitude":-2.64223579999998},{"cod_ine_prov":5,"cod_ine_muni":239,"provincia":"Ávila","municipio":"Sotalbo","center_latitude":40.5415063,"center_longitude":-4.84922890000007},{"cod_ine_prov":43,"cod_ine_muni":66,"provincia":"Tarragona","municipio":"Garidells (Els)","center_latitude":41.207489,"center_longitude":1.24748509999995},{"cod_ine_prov":6,"cod_ine_muni":125,"provincia":"Badajoz","municipio":"Siruela","center_latitude":38.9776711,"center_longitude":-5.05170229999999},{"cod_ine_prov":10,"cod_ine_muni":171,"provincia":"Cáceres","municipio":"Santibáñez el Alto","center_latitude":40.1859695,"center_longitude":-6.54660880000006},{"cod_ine_prov":15,"cod_ine_muni":79,"provincia":"A Coruña","municipio":"Santiso","center_latitude":42.85,"center_longitude":-8.04999999999995},{"cod_ine_prov":15,"cod_ine_muni":81,"provincia":"A Coruña","municipio":"Somozas (As)","center_latitude":43.5360528,"center_longitude":-7.92433890000007},{"cod_ine_prov":36,"cod_ine_muni":51,"provincia":"Pontevedra","municipio":"Sanxenxo","center_latitude":42.3994787,"center_longitude":-8.80692739999995},{"cod_ine_prov":36,"cod_ine_muni":52,"provincia":"Pontevedra","municipio":"Silleda","center_latitude":42.6979066,"center_longitude":-8.24838150000005},{"cod_ine_prov":14,"cod_ine_muni":62,"provincia":"Córdoba","municipio":"Torrecampo","center_latitude":38.4751014,"center_longitude":-4.6794562},{"cod_ine_prov":23,"cod_ine_muni":86,"provincia":"Jaén","municipio":"Torre del Campo","center_latitude":37.776568,"center_longitude":-3.89552100000003},{"cod_ine_prov":44,"cod_ine_muni":216,"provincia":"Teruel","municipio":"Teruel","center_latitude":40.3441099,"center_longitude":-1.10690959999999},{"cod_ine_prov":50,"cod_ine_muni":251,"provincia":"Zaragoza","municipio":"Tarazona","center_latitude":41.9027715,"center_longitude":-1.72540000000004},{"cod_ine_prov":33,"cod_ine_muni":70,"provincia":"Asturias","municipio":"Tapia de Casariego","center_latitude":43.5697535,"center_longitude":-6.94360419999998},{"cod_ine_prov":35,"cod_ine_muni":24,"provincia":"Las Palmas","municipio":"Teguise","center_latitude":29.0594165,"center_longitude":-13.5602969},{"cod_ine_prov":2,"cod_ine_muni":73,"provincia":"Albacete","municipio":"Tarazona de la Mancha","center_latitude":39.2653066,"center_longitude":-1.91283620000002},{"cod_ine_prov":45,"cod_ine_muni":165,"provincia":"Toledo","municipio":"Talavera de la Reina","center_latitude":39.9598001,"center_longitude":-4.83443199999999},{"cod_ine_prov":5,"cod_ine_muni":247,"provincia":"Ávila","municipio":"Torre (La)","center_latitude":40.5892565,"center_longitude":-4.965192},{"cod_ine_prov":8,"cod_ine_muni":279,"provincia":"Barcelona","municipio":"Terrassa","center_latitude":41.560953,"center_longitude":2.01043979999997},{"cod_ine_prov":25,"cod_ine_muni":907,"provincia":"Lleida","municipio":"Torrefeta i Florejacs","center_latitude":41.7543227,"center_longitude":1.27476109999998},{"cod_ine_prov":43,"cod_ine_muni":148,"provincia":"Tarragona","municipio":"Tarragona","center_latitude":41.1186629,"center_longitude":1.24532999999997},{"cod_ine_prov":10,"cod_ine_muni":180,"provincia":"Cáceres","municipio":"Talayuela","center_latitude":39.9857899,"center_longitude":-5.60976649999998},{"cod_ine_prov":10,"cod_ine_muni":190,"provincia":"Cáceres","municipio":"Torrejón el Rubio","center_latitude":39.7716874,"center_longitude":-6.01425670000003},{"cod_ine_prov":11,"cod_ine_muni":41,"provincia":"Cádiz","municipio":"Villamartín","center_latitude":36.8613237,"center_longitude":-5.64183400000002},{"cod_ine_prov":14,"cod_ine_muni":69,"provincia":"Córdoba","municipio":"Villanueva de Córdoba","center_latitude":38.3227873,"center_longitude":-4.62834099999998},{"cod_ine_prov":14,"cod_ine_muni":71,"provincia":"Córdoba","municipio":"Villanueva del Rey","center_latitude":38.1996444,"center_longitude":-5.1514426},{"cod_ine_prov":18,"cod_ine_muni":907,"provincia":"Granada","municipio":"Valle del Zalabí","center_latitude":37.2861111,"center_longitude":-3.00888889999999},{"cod_ine_prov":23,"cod_ine_muni":93,"provincia":"Jaén","municipio":"Valdepeñas de Jaén","center_latitude":37.590343,"center_longitude":-3.81964470000003},{"cod_ine_prov":23,"cod_ine_muni":96,"provincia":"Jaén","municipio":"Villanueva de la Reina","center_latitude":38.0049841,"center_longitude":-3.91951229999995},{"cod_ine_prov":29,"cod_ine_muni":91,"provincia":"Málaga","municipio":"Torrox","center_latitude":36.7584541,"center_longitude":-3.95261660000006},{"cod_ine_prov":7,"cod_ine_muni":63,"provincia":"Baleares","municipio":"Valldemossa","center_latitude":39.7117573,"center_longitude":2.62253799999996},{"cod_ine_prov":39,"cod_ine_muni":91,"provincia":"Cantabria","municipio":"Valdáliga","center_latitude":43.3291667,"center_longitude":-4.34916670000007},{"cod_ine_prov":2,"cod_ine_muni":76,"provincia":"Albacete","municipio":"Vianos","center_latitude":38.6321836,"center_longitude":-2.50155940000002},{"cod_ine_prov":13,"cod_ine_muni":90,"provincia":"Ciudad Real","municipio":"Villamanrique","center_latitude":38.5481744,"center_longitude":-2.99674249999998},{"cod_ine_prov":16,"cod_ine_muni":263,"provincia":"Cuenca","municipio":"Villar de Olalla","center_latitude":40.0135616,"center_longitude":-2.19735760000003},{"cod_ine_prov":45,"cod_ine_muni":181,"provincia":"Toledo","municipio":"Velada","center_latitude":39.9807105,"center_longitude":-4.97911450000004},{"cod_ine_prov":43,"cod_ine_muni":155,"provincia":"Tarragona","municipio":"Tortosa","center_latitude":40.8110042,"center_longitude":0.520997399999942},{"cod_ine_prov":6,"cod_ine_muni":154,"provincia":"Badajoz","municipio":"Villanueva del Fresno","center_latitude":38.3759716,"center_longitude":-7.16899250000006},{"cod_ine_prov":10,"cod_ine_muni":213,"provincia":"Cáceres","municipio":"Villar del Pedroso","center_latitude":39.7063189,"center_longitude":-5.19625919999999},{"cod_ine_prov":36,"cod_ine_muni":61,"provincia":"Pontevedra","municipio":"Vilanova de Arousa","center_latitude":42.5622075,"center_longitude":-8.82771950000006},{"cod_ine_prov":28,"cod_ine_muni":160,"provincia":"Madrid","municipio":"Valdemorillo","center_latitude":40.5020845,"center_longitude":-4.06584129999999},{"cod_ine_prov":14,"cod_ine_muni":74,"provincia":"Córdoba","municipio":"Viso (El)","center_latitude":38.5989604902205,"center_longitude":-5.02892037528377},{"cod_ine_prov":41,"cod_ine_muni":57,"provincia":"Sevilla","municipio":"Madroño (El)","center_latitude":37.6454844,"center_longitude":-6.51169920000007},{"cod_ine_prov":49,"cod_ine_muni":275,"provincia":"Zamora","municipio":"Zamora","center_latitude":41.5036834,"center_longitude":-5.74377809999999},{"cod_ine_prov":2,"cod_ine_muni":3,"provincia":"Albacete","municipio":"Albacete","center_latitude":38.9976516,"center_longitude":-1.86007010000003},{"cod_ine_prov":2,"cod_ine_muni":81,"provincia":"Albacete","municipio":"Villarrobledo","center_latitude":39.2672561,"center_longitude":-2.60764270000004},{"cod_ine_prov":2,"cod_ine_muni":86,"provincia":"Albacete","municipio":"Yeste","center_latitude":38.3658253,"center_longitude":-2.31871049999995},{"cod_ine_prov":13,"cod_ine_muni":98,"provincia":"Ciudad Real","municipio":"Viso del Marqués","center_latitude":38.5232749,"center_longitude":-3.56280360000005},{"cod_ine_prov":17,"cod_ine_muni":95,"provincia":"Girona","municipio":"Lloret de Mar","center_latitude":41.6987848,"center_longitude":2.84758350000004},{"cod_ine_prov":6,"cod_ine_muni":159,"provincia":"Badajoz","municipio":"Zahínos","center_latitude":38.3301661,"center_longitude":-6.95503239999994},{"cod_ine_prov":12,"cod_ine_muni":138,"provincia":"Castellón","municipio":"Vinaròs","center_latitude":40.4709997,"center_longitude":0.474743499999931},{"cod_ine_prov":31,"cod_ine_muni":168,"provincia":"Navarra","municipio":"Metauten","center_latitude":42.6766657,"center_longitude":-2.12959620000004},{"cod_ine_prov":8,"cod_ine_muni":19,"provincia":"Barcelona","municipio":"Barcelona","center_latitude":41.387917,"center_longitude":2.16991870000004},{"cod_ine_prov":43,"cod_ine_muni":86,"provincia":"Tarragona","municipio":"Montblanc","center_latitude":41.3768551,"center_longitude":1.1614697},{"cod_ine_prov":6,"cod_ine_muni":14,"provincia":"Badajoz","municipio":"Azuaga","center_latitude":38.2596239,"center_longitude":-5.67791620000003},{"cod_ine_prov":6,"cod_ine_muni":16,"provincia":"Badajoz","municipio":"Barcarrota","center_latitude":38.5144132,"center_longitude":-6.84904170000004},{"cod_ine_prov":10,"cod_ine_muni":37,"provincia":"Cáceres","municipio":"Cáceres","center_latitude":39.4761789,"center_longitude":-6.37076039999999},{"cod_ine_prov":3,"cod_ine_muni":99,"provincia":"Alicante","municipio":"Orihuela","center_latitude":38.0839494,"center_longitude":-0.944782900000064},{"cod_ine_prov":41,"cod_ine_muni":39,"provincia":"Sevilla","municipio":"Écija","center_latitude":37.5409268,"center_longitude":-5.07995260000007},{"cod_ine_prov":7,"cod_ine_muni":26,"provincia":"Baleares","municipio":"Eivissa","center_latitude":38.9088566,"center_longitude":1.43237780000004},{"cod_ine_prov":6,"cod_ine_muni":48,"provincia":"Badajoz","municipio":"Esparragosa de Lares","center_latitude":38.975082,"center_longitude":-5.27010199999995},{"cod_ine_prov":15,"cod_ine_muni":62,"provincia":"A Coruña","municipio":"Outes","center_latitude":42.8512734,"center_longitude":-8.92645479999999},{"cod_ine_prov":8,"cod_ine_muni":198,"provincia":"Barcelona","municipio":"Sant Antoni de Vilamajor","center_latitude":41.6737032,"center_longitude":2.4008589},{"cod_ine_prov":25,"cod_ine_muni":175,"provincia":"Lleida","municipio":"Prats i Sansor","center_latitude":42.3644192,"center_longitude":1.83570950000001},{"cod_ine_prov":31,"cod_ine_muni":117,"provincia":"Navarra","municipio":"Goizueta","center_latitude":43.1710518,"center_longitude":-1.8642165},{"cod_ine_prov":46,"cod_ine_muni":206,"provincia":"Valencia","municipio":"Quesa","center_latitude":39.1196004,"center_longitude":-0.740554400000065},{"cod_ine_prov":41,"cod_ine_muni":65,"provincia":"Sevilla","municipio":"Morón de la Frontera","center_latitude":37.1222961,"center_longitude":-5.45186899999999},{"cod_ine_prov":33,"cod_ine_muni":45,"provincia":"Asturias","municipio":"Parres","center_latitude":43.37,"center_longitude":-5.19000000000005},{"cod_ine_prov":13,"cod_ine_muni":902,"provincia":"Ciudad Real","municipio":"Ruidera","center_latitude":38.9755098,"center_longitude":-2.88429689999998},{"cod_ine_prov":5,"cod_ine_muni":46,"provincia":"Ávila","municipio":"Canales","center_latitude":41.0032767,"center_longitude":-4.90034919999994},{"cod_ine_prov":25,"cod_ine_muni":123,"provincia":"Lleida","municipio":"Lladorre","center_latitude":42.621507,"center_longitude":1.24906929999997},{"cod_ine_prov":50,"cod_ine_muni":208,"provincia":"Zaragoza","municipio":"Pina de Ebro","center_latitude":41.4872749,"center_longitude":-0.531969200000049},{"cod_ine_prov":33,"cod_ine_muni":49,"provincia":"Asturias","municipio":"Piloña","center_latitude":43.35,"center_longitude":-5.35000000000002},{"cod_ine_prov":7,"cod_ine_muni":46,"provincia":"Baleares","municipio":"Sant Antoni de Portmany","center_latitude":38.9801161,"center_longitude":1.30658670000003},{"cod_ine_prov":10,"cod_ine_muni":151,"provincia":"Cáceres","municipio":"Portezuelo","center_latitude":39.811637,"center_longitude":-6.47510299999999},{"cod_ine_prov":7,"cod_ine_muni":55,"provincia":"Baleares","municipio":"Santa Margalida","center_latitude":39.7030559,"center_longitude":3.10355070000003},{"cod_ine_prov":8,"cod_ine_muni":174,"provincia":"Barcelona","municipio":"Puigdàlber","center_latitude":41.4044145,"center_longitude":1.70111599999996},{"cod_ine_prov":23,"cod_ine_muni":79,"provincia":"Jaén","municipio":"Santisteban del Puerto","center_latitude":38.2474561,"center_longitude":-3.20642750000002},{"cod_ine_prov":19,"cod_ine_muni":302,"provincia":"Guadalajara","municipio":"Valdegrudas","center_latitude":40.7134794,"center_longitude":-3.01606200000003},{"cod_ine_prov":42,"cod_ine_muni":193,"provincia":"Soria","municipio":"Valdelagua del Cerro","center_latitude":41.8877993,"center_longitude":-2.11654969999995},{"cod_ine_prov":6,"cod_ine_muni":123,"provincia":"Badajoz","municipio":"San Vicente de Alcántara","center_latitude":39.3604563,"center_longitude":-7.13695059999998},{"cod_ine_prov":31,"cod_ine_muni":225,"provincia":"Navarra","municipio":"Sorlada","center_latitude":42.615263,"center_longitude":-2.21535719999997},{"cod_ine_prov":49,"cod_ine_muni":22,"provincia":"Zamora","municipio":"Benegiles","center_latitude":41.6267886,"center_longitude":-5.63522990000001},{"cod_ine_prov":14,"cod_ine_muni":1,"provincia":"Córdoba","municipio":"Adamuz","center_latitude":38.0273636,"center_longitude":-4.52487329999997},{"cod_ine_prov":14,"cod_ine_muni":60,"provincia":"Córdoba","municipio":"Santaella","center_latitude":37.5662722,"center_longitude":-4.84509409999998},{"cod_ine_prov":21,"cod_ine_muni":57,"provincia":"Huelva","municipio":"Paymogo","center_latitude":37.7406366,"center_longitude":-7.34599370000001},{"cod_ine_prov":29,"cod_ine_muni":15,"provincia":"Málaga","municipio":"Antequera","center_latitude":37.0193787,"center_longitude":-4.56288510000002},{"cod_ine_prov":33,"cod_ine_muni":1,"provincia":"Asturias","municipio":"Allande","center_latitude":43.2666667,"center_longitude":-6.6166667},{"cod_ine_prov":35,"cod_ine_muni":3,"provincia":"Las Palmas","municipio":"Antigua","center_latitude":28.4234731,"center_longitude":-14.0145503},{"cod_ine_prov":35,"cod_ine_muni":34,"provincia":"Las Palmas","municipio":"Yaiza","center_latitude":28.9524668,"center_longitude":-13.7652634},{"cod_ine_prov":13,"cod_ine_muni":96,"provincia":"Ciudad Real","municipio":"Villarrubia de los Ojos","center_latitude":39.2191385,"center_longitude":-3.60788350000007},{"cod_ine_prov":42,"cod_ine_muni":211,"provincia":"Soria","municipio":"Villares de Soria (Los)","center_latitude":41.8644763,"center_longitude":-2.35585100000003},{"cod_ine_prov":43,"cod_ine_muni":4,"provincia":"Tarragona","municipio":"Alcanar","center_latitude":40.544838,"center_longitude":0.481190500000025},{"cod_ine_prov":6,"cod_ine_muni":19,"provincia":"Badajoz","municipio":"Berlanga","center_latitude":38.2827241,"center_longitude":-5.82918140000004},{"cod_ine_prov":10,"cod_ine_muni":4,"provincia":"Cáceres","municipio":"Acehúche","center_latitude":39.8025665,"center_longitude":-6.63386600000001},{"cod_ine_prov":31,"cod_ine_muni":258,"provincia":"Navarra","municipio":"Villava/Atarrabia","center_latitude":42.8309412,"center_longitude":-1.60877660000006},{"cod_ine_prov":8,"cod_ine_muni":249,"provincia":"Barcelona","municipio":"Santa Fe del Penedès","center_latitude":41.3843786,"center_longitude":1.72119799999996},{"cod_ine_prov":34,"cod_ine_muni":28,"provincia":"Palencia","municipio":"Báscones de Ojeda","center_latitude":42.6707689,"center_longitude":-4.52706069999999},{"cod_ine_prov":34,"cod_ine_muni":59,"provincia":"Palencia","municipio":"Cisneros","center_latitude":42.2204517,"center_longitude":-4.85716300000001},{"cod_ine_prov":40,"cod_ine_muni":12,"provincia":"Segovia","municipio":"Aldea Real","center_latitude":41.1856197,"center_longitude":-4.16495250000003},{"cod_ine_prov":23,"cod_ine_muni":19,"provincia":"Jaén","municipio":"Campillo de Arenas","center_latitude":37.5559269,"center_longitude":-3.63578919999998},{"cod_ine_prov":25,"cod_ine_muni":12,"provincia":"Lleida","municipio":"Alcoletge","center_latitude":41.6490929,"center_longitude":0.694525300000009},{"cod_ine_prov":46,"cod_ine_muni":23,"provincia":"Valencia","municipio":"Alfauir","center_latitude":38.928251,"center_longitude":-0.251723800000036},{"cod_ine_prov":25,"cod_ine_muni":13,"provincia":"Lleida","municipio":"Alfarràs","center_latitude":41.8309339,"center_longitude":0.568120499999964},{"cod_ine_prov":42,"cod_ine_muni":10,"provincia":"Soria","municipio":"Aldealices","center_latitude":41.901954,"center_longitude":-2.30951770000001},{"cod_ine_prov":12,"cod_ine_muni":8,"provincia":"Castellón","municipio":"Algimia de Almonacid","center_latitude":39.9143303,"center_longitude":-0.443456800000035},{"cod_ine_prov":41,"cod_ine_muni":24,"provincia":"Sevilla","municipio":"Carmona","center_latitude":37.4710235,"center_longitude":-5.6423284},{"cod_ine_prov":46,"cod_ine_muni":31,"provincia":"Valencia","municipio":"Alginet","center_latitude":39.2648174,"center_longitude":-0.467314200000033},{"cod_ine_prov":46,"cod_ine_muni":3,"provincia":"Valencia","municipio":"Atzeneta d'Albaida","center_latitude":38.8366585,"center_longitude":-0.49606689999996},{"cod_ine_prov":39,"cod_ine_muni":52,"provincia":"Cantabria","municipio":"Piélagos","center_latitude":43.3865695,"center_longitude":-3.95723739999994},{"cod_ine_prov":20,"cod_ine_muni":906,"provincia":"Guipúzcoa","municipio":"Altzaga","center_latitude":43.0644901,"center_longitude":-2.15383299999996},{"cod_ine_prov":40,"cod_ine_muni":51,"provincia":"Segovia","municipio":"Castroserracín","center_latitude":41.3933338,"center_longitude":-3.80317509999998},{"cod_ine_prov":12,"cod_ine_muni":11,"provincia":"Castellón","municipio":"Almenara","center_latitude":39.7544019,"center_longitude":-0.222755000000006},{"cod_ine_prov":31,"cod_ine_muni":19,"provincia":"Navarra","municipio":"Aoiz/Agoitz","center_latitude":42.7857904,"center_longitude":-1.36800990000006},{"cod_ine_prov":26,"cod_ine_muni":45,"provincia":"La Rioja","municipio":"Cellorigo","center_latitude":42.627769,"center_longitude":-2.99873019999995},{"cod_ine_prov":41,"cod_ine_muni":31,"provincia":"Sevilla","municipio":"Castillo de las Guardas (El)","center_latitude":37.6915997,"center_longitude":-6.31429920000005},{"cod_ine_prov":17,"cod_ine_muni":46,"provincia":"Girona","municipio":"Castellfollit de la Roca","center_latitude":42.219131,"center_longitude":2.55007669999998},{"cod_ine_prov":16,"cod_ine_muni":68,"provincia":"Cuenca","municipio":"Castillejo de Iniesta","center_latitude":39.5258204,"center_longitude":-1.76131090000001},{"cod_ine_prov":16,"cod_ine_muni":72,"provincia":"Cuenca","municipio":"Castillo de Garcimuñoz","center_latitude":39.6604012,"center_longitude":-2.37999360000003},{"cod_ine_prov":42,"cod_ine_muni":60,"provincia":"Soria","municipio":"Cerbón","center_latitude":41.9293042,"center_longitude":-2.16962209999997},{"cod_ine_prov":8,"cod_ine_muni":6,"provincia":"Barcelona","municipio":"Arenys de Mar","center_latitude":41.579445,"center_longitude":2.55147950000003},{"cod_ine_prov":26,"cod_ine_muni":33,"provincia":"La Rioja","municipio":"Briñas","center_latitude":42.6018489,"center_longitude":-2.83033449999994},{"cod_ine_prov":49,"cod_ine_muni":174,"provincia":"Zamora","municipio":"Requejo","center_latitude":42.0306845,"center_longitude":-6.74264530000005},{"cod_ine_prov":17,"cod_ine_muni":55,"provincia":"Girona","municipio":"Colomers","center_latitude":42.0837065,"center_longitude":2.98601429999997},{"cod_ine_prov":31,"cod_ine_muni":35,"provincia":"Navarra","municipio":"Armañanzas","center_latitude":42.5599177,"center_longitude":-2.28524970000001},{"cod_ine_prov":20,"cod_ine_muni":46,"provincia":"Guipúzcoa","municipio":"Irura","center_latitude":43.1656876,"center_longitude":-2.06961649999994},{"cod_ine_prov":25,"cod_ine_muni":93,"provincia":"Lleida","municipio":"Fondarella","center_latitude":41.6353634,"center_longitude":0.875502200000028},{"cod_ine_prov":25,"cod_ine_muni":45,"provincia":"Lleida","municipio":"Bausen","center_latitude":42.834485,"center_longitude":0.716732699999966},{"cod_ine_prov":42,"cod_ine_muni":33,"provincia":"Soria","municipio":"Bayubas de Arriba","center_latitude":41.5573548,"center_longitude":-2.88629040000001},{"cod_ine_prov":49,"cod_ine_muni":78,"provincia":"Zamora","municipio":"Friera de Valverde","center_latitude":41.9135902,"center_longitude":-5.8396272},{"cod_ine_prov":8,"cod_ine_muni":13,"provincia":"Barcelona","municipio":"Avinyonet del Penedès","center_latitude":41.360604,"center_longitude":1.77648499999998},{"cod_ine_prov":50,"cod_ine_muni":95,"provincia":"Zaragoza","municipio":"Ejea de los Caballeros","center_latitude":42.1292078,"center_longitude":-1.13743420000003},{"cod_ine_prov":3,"cod_ine_muni":40,"provincia":"Alicante","municipio":"Benimeli","center_latitude":38.822946,"center_longitude":-0.0417273000000478},{"cod_ine_prov":24,"cod_ine_muni":9,"provincia":"León","municipio":"Balboa","center_latitude":42.706515,"center_longitude":-6.92330730000003},{"cod_ine_prov":47,"cod_ine_muni":225,"provincia":"Valladolid","municipio":"Villasexmir","center_latitude":41.6392089,"center_longitude":-5.06552310000006},{"cod_ine_prov":23,"cod_ine_muni":11,"provincia":"Jaén","municipio":"Baños de la Encina","center_latitude":38.1713341,"center_longitude":-3.77425840000001},{"cod_ine_prov":12,"cod_ine_muni":58,"provincia":"Castellón","municipio":"Espadilla","center_latitude":40.0280921,"center_longitude":-0.355491099999995},{"cod_ine_prov":19,"cod_ine_muni":104,"provincia":"Guadalajara","municipio":"Chequilla","center_latitude":40.605822,"center_longitude":-1.82744579999996},{"cod_ine_prov":8,"cod_ine_muni":135,"provincia":"Barcelona","municipio":"Montmeló","center_latitude":41.5514602,"center_longitude":2.24846490000004},{"cod_ine_prov":5,"cod_ine_muni":214,"provincia":"Ávila","municipio":"San Lorenzo de Tormes","center_latitude":40.3702492,"center_longitude":-5.48814970000001},{"cod_ine_prov":31,"cod_ine_muni":75,"provincia":"Navarra","municipio":"Ciriza","center_latitude":42.7906257,"center_longitude":-1.82693399999994},{"cod_ine_prov":8,"cod_ine_muni":161,"provincia":"Barcelona","municipio":"Piera","center_latitude":41.5179711,"center_longitude":1.74326829999995},{"cod_ine_prov":17,"cod_ine_muni":74,"provincia":"Girona","municipio":"Fortià","center_latitude":42.2447997,"center_longitude":3.03968039999995},{"cod_ine_prov":8,"cod_ine_muni":99,"provincia":"Barcelona","municipio":"Guardiola de Berguedà","center_latitude":42.233446,"center_longitude":1.87911110000005},{"cod_ine_prov":26,"cod_ine_muni":41,"provincia":"La Rioja","municipio":"Cárdenas","center_latitude":42.3742379,"center_longitude":-2.76725499999998},{"cod_ine_prov":33,"cod_ine_muni":26,"provincia":"Asturias","municipio":"Grado","center_latitude":43.3885482,"center_longitude":-6.06973010000002},{"cod_ine_prov":42,"cod_ine_muni":37,"provincia":"Soria","municipio":"Bliecos","center_latitude":41.5282691,"center_longitude":-2.27157060000002},{"cod_ine_prov":42,"cod_ine_muni":41,"provincia":"Soria","municipio":"Buberos","center_latitude":41.6472683,"center_longitude":-2.19545570000002},{"cod_ine_prov":20,"cod_ine_muni":48,"provincia":"Guipúzcoa","municipio":"Larraul","center_latitude":43.1877392,"center_longitude":-2.10253360000002},{"cod_ine_prov":3,"cod_ine_muni":82,"provincia":"Alicante","municipio":"Jávea/Xàbia","center_latitude":38.7954617,"center_longitude":0.1166293},{"cod_ine_prov":34,"cod_ine_muni":149,"provincia":"Palencia","municipio":"Requena de Campos","center_latitude":42.3080221,"center_longitude":-4.34372719999999},{"cod_ine_prov":15,"cod_ine_muni":72,"provincia":"A Coruña","municipio":"Rianxo","center_latitude":42.6519856,"center_longitude":-8.8184205},{"cod_ine_prov":14,"cod_ine_muni":45,"provincia":"Córdoba","municipio":"Moriles","center_latitude":37.4352591,"center_longitude":-4.60876680000001},{"cod_ine_prov":29,"cod_ine_muni":70,"provincia":"Málaga","municipio":"Mijas","center_latitude":36.5956989,"center_longitude":-4.63761880000004},{"cod_ine_prov":43,"cod_ine_muni":97,"provincia":"Tarragona","municipio":"Nou de Gaià (La)","center_latitude":41.1822901,"center_longitude":1.37447889999999},{"cod_ine_prov":6,"cod_ine_muni":83,"provincia":"Badajoz","municipio":"Mérida","center_latitude":38.9158586,"center_longitude":-6.34560609999994},{"cod_ine_prov":27,"cod_ine_muni":34,"provincia":"Lugo","municipio":"Navia de Suarna","center_latitude":42.964857,"center_longitude":-7.00386500000002},{"cod_ine_prov":28,"cod_ine_muni":94,"provincia":"Madrid","municipio":"Navalafuente","center_latitude":40.8245086,"center_longitude":-3.67357249999998},{"cod_ine_prov":34,"cod_ine_muni":116,"provincia":"Palencia","municipio":"Osornillo","center_latitude":42.3700255,"center_longitude":-4.2911838},{"cod_ine_prov":31,"cod_ine_muni":185,"provincia":"Navarra","municipio":"Ochagavía","center_latitude":42.9057834,"center_longitude":-1.09072630000003},{"cod_ine_prov":12,"cod_ine_muni":53,"provincia":"Castellón","municipio":"Chilches/Xilxes","center_latitude":39.7681816,"center_longitude":-0.156830200000059},{"cod_ine_prov":41,"cod_ine_muni":40,"provincia":"Sevilla","municipio":"Espartinas","center_latitude":37.3799708,"center_longitude":-6.12357689999999},{"cod_ine_prov":2,"cod_ine_muni":69,"provincia":"Albacete","municipio":"Roda (La)","center_latitude":39.1691022738117,"center_longitude":-2.16104665510625},{"cod_ine_prov":17,"cod_ine_muni":54,"provincia":"Girona","municipio":"Colera","center_latitude":42.4037521,"center_longitude":3.15061279999998},{"cod_ine_prov":3,"cod_ine_muni":61,"provincia":"Alicante","municipio":"Daya Nueva","center_latitude":38.1131562,"center_longitude":-0.759237799999937},{"cod_ine_prov":3,"cod_ine_muni":118,"provincia":"Alicante","municipio":"San Fulgencio","center_latitude":38.1142186,"center_longitude":-0.717955699999948},{"cod_ine_prov":42,"cod_ine_muni":89,"provincia":"Soria","municipio":"Fuentelsaz de Soria","center_latitude":41.8647598,"center_longitude":-2.41550589999997},{"cod_ine_prov":47,"cod_ine_muni":64,"provincia":"Valladolid","municipio":"Fontihoyuelo","center_latitude":42.1620909,"center_longitude":-5.05727990000003},{"cod_ine_prov":23,"cod_ine_muni":80,"provincia":"Jaén","municipio":"Santo Tomé","center_latitude":38.0281848,"center_longitude":-3.1018444},{"cod_ine_prov":40,"cod_ine_muni":78,"provincia":"Segovia","municipio":"Fresneda de Cuéllar","center_latitude":41.3183243,"center_longitude":-4.44965389999993},{"cod_ine_prov":47,"cod_ine_muni":159,"provincia":"Valladolid","municipio":"Serrada","center_latitude":41.4592968,"center_longitude":-4.86114190000001},{"cod_ine_prov":37,"cod_ine_muni":148,"provincia":"Salamanca","municipio":"Garcihernández","center_latitude":40.8602048,"center_longitude":-5.43244249999998},{"cod_ine_prov":49,"cod_ine_muni":219,"provincia":"Zamora","municipio":"Toro","center_latitude":41.526355,"center_longitude":-5.39485709999997},{"cod_ine_prov":17,"cod_ine_muni":203,"provincia":"Girona","municipio":"Ultramort","center_latitude":42.0379811,"center_longitude":3.03542340000001},{"cod_ine_prov":31,"cod_ine_muni":122,"provincia":"Navarra","municipio":"Huarte/Uharte","center_latitude":42.8317268,"center_longitude":-1.59082680000006},{"cod_ine_prov":21,"cod_ine_muni":3,"provincia":"Huelva","municipio":"Almendro (El)","center_latitude":37.5602860450425,"center_longitude":-7.37290987018223},{"cod_ine_prov":8,"cod_ine_muni":81,"provincia":"Barcelona","municipio":"Fogars de Montclús","center_latitude":41.728611,"center_longitude":2.44444399999998},{"cod_ine_prov":21,"cod_ine_muni":18,"provincia":"Huelva","municipio":"Campillo (El)","center_latitude":37.6864177428698,"center_longitude":-6.61587491209794},{"cod_ine_prov":12,"cod_ine_muni":74,"provincia":"Castellón","municipio":"Llosa (la)","center_latitude":39.7664589858286,"center_longitude":-0.202476222555321},{"cod_ine_prov":50,"cod_ine_muni":182,"provincia":"Zaragoza","municipio":"Muela (La)","center_latitude":41.5638044595443,"center_longitude":-1.1296027996835},{"cod_ine_prov":15,"cod_ine_muni":66,"provincia":"A Coruña","municipio":"Pino (O)","center_latitude":42.9457520869572,"center_longitude":-8.35005165653831},{"cod_ine_prov":4,"cod_ine_muni":70,"provincia":"Almería","municipio":"Oria","center_latitude":37.4850307,"center_longitude":-2.29501830000004},{"cod_ine_prov":4,"cod_ine_muni":901,"provincia":"Almería","municipio":"Tres Villas (Las)","center_latitude":37.1577477894525,"center_longitude":-2.7158788371151},{"cod_ine_prov":19,"cod_ine_muni":213,"provincia":"Guadalajara","municipio":"Pedregal (El)","center_latitude":40.7800396,"center_longitude":-1.57073719999994},{"cod_ine_prov":33,"cod_ine_muni":50,"provincia":"Asturias","municipio":"Ponga","center_latitude":43.19,"center_longitude":-5.15999999999997},{"cod_ine_prov":7,"cod_ine_muni":37,"provincia":null,"municipio":"Es Mercadal","center_latitude":40.0132769466044,"center_longitude":4.11273580384485},{"cod_ine_prov":8,"cod_ine_muni":86,"provincia":"Barcelona","municipio":"Franqueses del Vallès (Les)","center_latitude":41.6188889,"center_longitude":2.2980556},{"cod_ine_prov":4,"cod_ine_muni":90,"provincia":"Almería","municipio":"Tahal","center_latitude":37.2280361,"center_longitude":-2.28497040000002},{"cod_ine_prov":11,"cod_ine_muni":1,"provincia":"Cádiz","municipio":"Alcalá de los Gazules","center_latitude":36.4604548,"center_longitude":-5.72371780000003},{"cod_ine_prov":23,"cod_ine_muni":2,"provincia":"Jaén","municipio":"Alcalá la Real","center_latitude":37.4635849,"center_longitude":-3.92507820000003},{"cod_ine_prov":33,"cod_ine_muni":68,"provincia":"Asturias","municipio":"Somiedo","center_latitude":43.1,"center_longitude":-6.25},{"cod_ine_prov":10,"cod_ine_muni":8,"provincia":"Cáceres","municipio":"Alcántara","center_latitude":39.7191857,"center_longitude":-6.88650719999998},{"cod_ine_prov":14,"cod_ine_muni":3,"provincia":"Córdoba","municipio":"Alcaracejos","center_latitude":38.3882311,"center_longitude":-4.96768410000004},{"cod_ine_prov":18,"cod_ine_muni":105,"provincia":"Granada","municipio":"Iznalloz","center_latitude":37.3927023,"center_longitude":-3.52754879999998},{"cod_ine_prov":18,"cod_ine_muni":152,"provincia":"Granada","municipio":"Pedro Martínez","center_latitude":37.5016808,"center_longitude":-3.23065910000003},{"cod_ine_prov":23,"cod_ine_muni":3,"provincia":"Jaén","municipio":"Alcaudete","center_latitude":37.5910658,"center_longitude":-4.08673499999998},{"cod_ine_prov":33,"cod_ine_muni":7,"provincia":"Asturias","municipio":"Boal","center_latitude":43.4296018,"center_longitude":-6.81787789999998},{"cod_ine_prov":2,"cod_ine_muni":8,"provincia":"Albacete","municipio":"Alcaraz","center_latitude":38.6696592,"center_longitude":-2.49264689999995},{"cod_ine_prov":46,"cod_ine_muni":65,"provincia":"Valencia","municipio":"Beniparrell","center_latitude":39.3811287,"center_longitude":-0.412626199999977},{"cod_ine_prov":14,"cod_ine_muni":54,"provincia":"Córdoba","municipio":"Pozoblanco","center_latitude":38.3774183,"center_longitude":-4.84837570000002},{"cod_ine_prov":42,"cod_ine_muni":106,"provincia":"Soria","municipio":"Losilla (La)","center_latitude":41.8724679,"center_longitude":-2.27870610000002},{"cod_ine_prov":23,"cod_ine_muni":70,"provincia":"Jaén","municipio":"Pozo Alcón","center_latitude":37.7051163,"center_longitude":-2.93435959999999},{"cod_ine_prov":38,"cod_ine_muni":10,"provincia":"Santa Cruz de Tenerife","municipio":"Buenavista del Norte","center_latitude":28.370286,"center_longitude":-16.8502412},{"cod_ine_prov":36,"cod_ine_muni":4,"provincia":"Pontevedra","municipio":"Bueu","center_latitude":42.3197739,"center_longitude":-8.79013529999997},{"cod_ine_prov":47,"cod_ine_muni":102,"provincia":"Valladolid","municipio":"Nueva Villa de las Torres","center_latitude":41.2673683,"center_longitude":-5.05586640000001},{"cod_ine_prov":25,"cod_ine_muni":109,"provincia":"Lleida","municipio":"Guimerà","center_latitude":41.5641085,"center_longitude":1.18442779999998},{"cod_ine_prov":18,"cod_ine_muni":98,"provincia":"Granada","municipio":"Huéscar","center_latitude":37.8094891,"center_longitude":-2.53966309999998},{"cod_ine_prov":18,"cod_ine_muni":122,"provincia":"Granada","municipio":"Loja","center_latitude":37.1688409,"center_longitude":-4.15147120000006},{"cod_ine_prov":21,"cod_ine_muni":40,"provincia":"Huelva","municipio":"Hinojos","center_latitude":37.2927341,"center_longitude":-6.37625330000003},{"cod_ine_prov":17,"cod_ine_muni":182,"provincia":"Girona","municipio":"Santa Llogaia d'Àlguema","center_latitude":42.2343901,"center_longitude":2.95190579999996},{"cod_ine_prov":15,"cod_ine_muni":39,"provincia":"A Coruña","municipio":"Irixoa","center_latitude":43.284744,"center_longitude":-8.05892500000004},{"cod_ine_prov":29,"cod_ine_muni":67,"provincia":"Málaga","municipio":"Málaga","center_latitude":36.7196484,"center_longitude":-4.42001630000004},{"cod_ine_prov":40,"cod_ine_muni":224,"provincia":"Segovia","municipio":"Ventosilla y Tejadilla","center_latitude":41.1822551,"center_longitude":-3.69543369999997},{"cod_ine_prov":3,"cod_ine_muni":120,"provincia":"Alicante","municipio":"San Miguel de Salinas","center_latitude":37.9799343,"center_longitude":-0.789285699999937},{"cod_ine_prov":25,"cod_ine_muni":224,"provincia":"Lleida","municipio":"Torms (Els)","center_latitude":41.3945296,"center_longitude":0.722160700000018},{"cod_ine_prov":27,"cod_ine_muni":10,"provincia":"Lugo","municipio":"Castro de Rei","center_latitude":43.11861,"center_longitude":-7.46500000000003},{"cod_ine_prov":30,"cod_ine_muni":16,"provincia":"Murcia","municipio":"Cartagena","center_latitude":37.6056505,"center_longitude":-0.991294400000015},{"cod_ine_prov":49,"cod_ine_muni":228,"provincia":"Zamora","municipio":"Valdefinjas","center_latitude":41.451281,"center_longitude":-5.45297170000003},{"cod_ine_prov":50,"cod_ine_muni":235,"provincia":"Zaragoza","municipio":"San Mateo de Gállego","center_latitude":41.8305995,"center_longitude":-0.769073400000025},{"cod_ine_prov":13,"cod_ine_muni":72,"provincia":"Ciudad Real","municipio":"Retuerta del Bullaque","center_latitude":39.4612016,"center_longitude":-4.40956249999999},{"cod_ine_prov":24,"cod_ine_muni":143,"provincia":"León","municipio":"Sancedo","center_latitude":42.6679995,"center_longitude":-6.63288739999996},{"cod_ine_prov":45,"cod_ine_muni":157,"provincia":"Toledo","municipio":"Santa Cruz del Retamar","center_latitude":40.118978,"center_longitude":-4.24154509999994},{"cod_ine_prov":40,"cod_ine_muni":194,"provincia":"Segovia","municipio":"Segovia","center_latitude":40.9494272,"center_longitude":-4.1192092},{"cod_ine_prov":8,"cod_ine_muni":245,"provincia":"Barcelona","municipio":"Santa Coloma de Gramenet","center_latitude":41.4510746,"center_longitude":2.208978},{"cod_ine_prov":43,"cod_ine_muni":136,"provincia":"Tarragona","municipio":"Sant Carles de la Ràpita","center_latitude":40.6202045,"center_longitude":0.592892500000062},{"cod_ine_prov":46,"cod_ine_muni":224,"provincia":"Valencia","municipio":"Segart","center_latitude":39.6835873,"center_longitude":-0.373617700000068},{"cod_ine_prov":23,"cod_ine_muni":81,"provincia":"Jaén","municipio":"Segura de la Sierra","center_latitude":38.2977559,"center_longitude":-2.65151309999999},{"cod_ine_prov":41,"cod_ine_muni":95,"provincia":"Sevilla","municipio":"Utrera","center_latitude":37.1814192,"center_longitude":-5.78150690000007},{"cod_ine_prov":40,"cod_ine_muni":72,"provincia":"Segovia","municipio":"Encinillas","center_latitude":41.0179183,"center_longitude":-4.15808549999997},{"cod_ine_prov":47,"cod_ine_muni":135,"provincia":"Valladolid","municipio":"Robladillo","center_latitude":41.6084577,"center_longitude":-4.90986180000004},{"cod_ine_prov":36,"cod_ine_muni":31,"provincia":"Pontevedra","municipio":"Mondariz-Balneario","center_latitude":42.2269718,"center_longitude":-8.46582169999999},{"cod_ine_prov":16,"cod_ine_muni":131,"provincia":"Cuenca","municipio":"Monteagudo de las Salinas","center_latitude":39.8050243,"center_longitude":-1.89931509999997},{"cod_ine_prov":9,"cod_ine_muni":338,"provincia":"Burgos","municipio":"San Mamés de Burgos","center_latitude":42.3374458,"center_longitude":-3.79410729999995},{"cod_ine_prov":15,"cod_ine_muni":50,"provincia":"A Coruña","municipio":"Monfero","center_latitude":43.3249095,"center_longitude":-8.05468500000006},{"cod_ine_prov":21,"cod_ine_muni":6,"provincia":"Huelva","municipio":"Alosno","center_latitude":37.5493568,"center_longitude":-7.1154282},{"cod_ine_prov":24,"cod_ine_muni":25,"provincia":"León","municipio":"Burón","center_latitude":43.0235625,"center_longitude":-5.05134150000004},{"cod_ine_prov":43,"cod_ine_muni":31,"provincia":"Tarragona","municipio":"Borges del Camp (Les)","center_latitude":41.1720643,"center_longitude":1.02046659999996},{"cod_ine_prov":30,"cod_ine_muni":3,"provincia":"Murcia","municipio":"Águilas","center_latitude":37.403804,"center_longitude":-1.58116140000004},{"cod_ine_prov":7,"cod_ine_muni":6,"provincia":"Baleares","municipio":"Artà","center_latitude":39.6921477,"center_longitude":3.34907320000002},{"cod_ine_prov":8,"cod_ine_muni":183,"provincia":"Barcelona","municipio":"Roda de Ter","center_latitude":41.9859679,"center_longitude":2.31121180000002},{"cod_ine_prov":25,"cod_ine_muni":34,"provincia":"Lleida","municipio":"Artesa de Segre","center_latitude":41.8950081,"center_longitude":1.04747399999997},{"cod_ine_prov":15,"cod_ine_muni":5,"provincia":"A Coruña","municipio":"Arteixo","center_latitude":43.3045068,"center_longitude":-8.5113867},{"cod_ine_prov":15,"cod_ine_muni":6,"provincia":"A Coruña","municipio":"Arzúa","center_latitude":42.9271719,"center_longitude":-8.16419640000004},{"cod_ine_prov":47,"cod_ine_muni":187,"provincia":"Valladolid","municipio":"Vega de Ruiponce","center_latitude":42.1882661,"center_longitude":-5.1145454},{"cod_ine_prov":4,"cod_ine_muni":2,"provincia":"Almería","municipio":"Abrucena","center_latitude":37.1330481,"center_longitude":-2.79709819999994},{"cod_ine_prov":13,"cod_ine_muni":1,"provincia":"Ciudad Real","municipio":"Abenójar","center_latitude":38.8793473,"center_longitude":-4.35777810000002},{"cod_ine_prov":38,"cod_ine_muni":1,"provincia":"Santa Cruz de Tenerife","municipio":"Adeje","center_latitude":28.1218455,"center_longitude":-16.7246398},{"cod_ine_prov":15,"cod_ine_muni":1,"provincia":"A Coruña","municipio":"Abegondo","center_latitude":43.2166667,"center_longitude":-8.28333329999998},{"cod_ine_prov":7,"cod_ine_muni":32,"provincia":null,"municipio":"Mahón","center_latitude":39.9156910034254,"center_longitude":4.23307407389903},{"cod_ine_prov":36,"cod_ine_muni":20,"provincia":"Pontevedra","municipio":"Agolada","center_latitude":42.7622689,"center_longitude":-8.01942469999995},{"cod_ine_prov":3,"cod_ine_muni":3,"provincia":"Alicante","municipio":"Agres","center_latitude":38.7798764,"center_longitude":-0.515677200000027},{"cod_ine_prov":18,"cod_ine_muni":3,"provincia":"Granada","municipio":"Albolote","center_latitude":37.2308556,"center_longitude":-3.6574147},{"cod_ine_prov":18,"cod_ine_muni":97,"provincia":"Granada","municipio":"Huéneja","center_latitude":37.1769335,"center_longitude":-2.94859550000001},{"cod_ine_prov":41,"cod_ine_muni":4,"provincia":"Sevilla","municipio":"Alcalá de Guadaíra","center_latitude":37.3383272,"center_longitude":-5.84403180000004},{"cod_ine_prov":44,"cod_ine_muni":9,"provincia":"Teruel","municipio":"Albarracín","center_latitude":40.4065205,"center_longitude":-1.44440209999993},{"cod_ine_prov":16,"cod_ine_muni":3,"provincia":"Cuenca","municipio":"Alarcón","center_latitude":39.5462248,"center_longitude":-2.0835032},{"cod_ine_prov":49,"cod_ine_muni":272,"provincia":"Zamora","municipio":"Villaveza de Valverde","center_latitude":41.9447068,"center_longitude":-5.84987790000002},{"cod_ine_prov":6,"cod_ine_muni":4,"provincia":"Badajoz","municipio":"Alange","center_latitude":38.7870782,"center_longitude":-6.24349289999998},{"cod_ine_prov":6,"cod_ine_muni":6,"provincia":"Badajoz","municipio":"Alburquerque","center_latitude":39.2193551,"center_longitude":-7.00131680000004},{"cod_ine_prov":25,"cod_ine_muni":10,"provincia":"Lleida","municipio":"Alcanó","center_latitude":41.4808447,"center_longitude":0.617977099999962},{"cod_ine_prov":10,"cod_ine_muni":11,"provincia":"Cáceres","municipio":"Aldeacentenera","center_latitude":39.5273616,"center_longitude":-5.62898040000005},{"cod_ine_prov":48,"cod_ine_muni":50,"provincia":"Vizcaya","municipio":"Izurtza","center_latitude":43.152273,"center_longitude":-2.64197779999995},{"cod_ine_prov":41,"cod_ine_muni":9,"provincia":"Sevilla","municipio":"Almadén de la Plata","center_latitude":37.8734499,"center_longitude":-6.07976589999998},{"cod_ine_prov":13,"cod_ine_muni":11,"provincia":"Ciudad Real","municipio":"Almadén","center_latitude":38.7753722,"center_longitude":-4.8399187},{"cod_ine_prov":13,"cod_ine_muni":13,"provincia":"Ciudad Real","municipio":"Almagro","center_latitude":38.8908966,"center_longitude":-3.70641580000006},{"cod_ine_prov":42,"cod_ine_muni":17,"provincia":"Soria","municipio":"Almajano","center_latitude":41.8508065,"center_longitude":-2.33791450000001},{"cod_ine_prov":4,"cod_ine_muni":13,"provincia":"Almería","municipio":"Almería","center_latitude":36.8401638,"center_longitude":-2.46792170000003},{"cod_ine_prov":14,"cod_ine_muni":4,"provincia":"Córdoba","municipio":"Almedinilla","center_latitude":37.4390031,"center_longitude":-4.09120489999998},{"cod_ine_prov":21,"cod_ine_muni":4,"provincia":"Huelva","municipio":"Almonaster la Real","center_latitude":37.8718102,"center_longitude":-6.78790149999998},{"cod_ine_prov":21,"cod_ine_muni":5,"provincia":"Huelva","municipio":"Almonte","center_latitude":37.2625346,"center_longitude":-6.51724009999998},{"cod_ine_prov":13,"cod_ine_muni":15,"provincia":"Ciudad Real","municipio":"Almodóvar del Campo","center_latitude":38.7089241,"center_longitude":-4.17863999999997},{"cod_ine_prov":3,"cod_ine_muni":36,"provincia":"Alicante","municipio":"Benillup","center_latitude":38.7534784,"center_longitude":-0.378905700000018},{"cod_ine_prov":43,"cod_ine_muni":13,"provincia":"Tarragona","municipio":"Ametlla de Mar (L')","center_latitude":40.8850733,"center_longitude":0.803374200000007},{"cod_ine_prov":43,"cod_ine_muni":906,"provincia":"Tarragona","municipio":"Ampolla (L')","center_latitude":40.8132425,"center_longitude":0.709586299999955},{"cod_ine_prov":14,"cod_ine_muni":6,"provincia":"Córdoba","municipio":"Añora","center_latitude":38.4109934,"center_longitude":-4.89746160000004},{"cod_ine_prov":21,"cod_ine_muni":7,"provincia":"Huelva","municipio":"Aracena","center_latitude":37.8941732,"center_longitude":-6.56120669999996},{"cod_ine_prov":22,"cod_ine_muni":28,"provincia":"Huesca","municipio":"Ansó","center_latitude":42.7575406,"center_longitude":-0.828117099999986},{"cod_ine_prov":15,"cod_ine_muni":3,"provincia":"A Coruña","municipio":"Aranga","center_latitude":43.233333,"center_longitude":-8.01666699999998},{"cod_ine_prov":28,"cod_ine_muni":13,"provincia":"Madrid","municipio":"Aranjuez","center_latitude":40.0320927,"center_longitude":-3.60328789999994},{"cod_ine_prov":13,"cod_ine_muni":19,"provincia":"Ciudad Real","municipio":"Argamasilla de Alba","center_latitude":39.128713,"center_longitude":-3.08847160000005},{"cod_ine_prov":8,"cod_ine_muni":108,"provincia":"Barcelona","municipio":"Lliçà de Vall","center_latitude":41.5908073,"center_longitude":2.24273310000001},{"cod_ine_prov":12,"cod_ine_muni":14,"provincia":"Castellón","municipio":"Ares del Maestre","center_latitude":40.4569853,"center_longitude":-0.133407199999965},{"cod_ine_prov":16,"cod_ine_muni":143,"provincia":"Cuenca","municipio":"Olmedilla de Eliz","center_latitude":40.3033987,"center_longitude":-2.4191558},{"cod_ine_prov":17,"cod_ine_muni":166,"provincia":"Girona","municipio":"Sant Jordi Desvalls","center_latitude":42.070581,"center_longitude":2.95404429999996},{"cod_ine_prov":21,"cod_ine_muni":10,"provincia":"Huelva","municipio":"Ayamonte","center_latitude":37.2146613,"center_longitude":-7.40981880000004},{"cod_ine_prov":41,"cod_ine_muni":12,"provincia":"Sevilla","municipio":"Aznalcázar","center_latitude":37.3051742,"center_longitude":-6.24841449999997},{"cod_ine_prov":46,"cod_ine_muni":44,"provincia":"Valencia","municipio":"Ayora","center_latitude":39.0581746,"center_longitude":-1.05789720000007},{"cod_ine_prov":23,"cod_ine_muni":9,"provincia":"Jaén","municipio":"Baeza","center_latitude":37.9934329,"center_longitude":-3.46923679999998},{"cod_ine_prov":6,"cod_ine_muni":15,"provincia":"Badajoz","municipio":"Badajoz","center_latitude":38.8785967,"center_longitude":-6.97028339999997},{"cod_ine_prov":47,"cod_ine_muni":13,"provincia":"Valladolid","municipio":"Barcial de la Loma","center_latitude":41.9502798,"center_longitude":-5.28459780000003},{"cod_ine_prov":27,"cod_ine_muni":5,"provincia":"Lugo","municipio":"Barreiros","center_latitude":43.5333333,"center_longitude":-7.23333330000003},{"cod_ine_prov":18,"cod_ine_muni":23,"provincia":"Granada","municipio":"Baza","center_latitude":37.490651,"center_longitude":-2.77447319999999},{"cod_ine_prov":21,"cod_ine_muni":11,"provincia":"Huelva","municipio":"Beas","center_latitude":37.4259207,"center_longitude":-6.79298819999997},{"cod_ine_prov":23,"cod_ine_muni":12,"provincia":"Jaén","municipio":"Beas de Segura","center_latitude":38.2523755,"center_longitude":-2.88988259999996},{"cod_ine_prov":22,"cod_ine_muni":51,"provincia":"Huesca","municipio":"Bárcabo","center_latitude":42.2413099,"center_longitude":0.0694183000000521},{"cod_ine_prov":44,"cod_ine_muni":37,"provincia":"Teruel","municipio":"Beceite","center_latitude":40.8310601,"center_longitude":0.179560100000003},{"cod_ine_prov":31,"cod_ine_muni":50,"provincia":"Navarra","municipio":"Baztan","center_latitude":43.2,"center_longitude":-1.46669999999995},{"cod_ine_prov":23,"cod_ine_muni":902,"provincia":"Jaén","municipio":"Bedmar y Garcíez","center_latitude":37.8226793,"center_longitude":-3.41169880000007},{"cod_ine_prov":17,"cod_ine_muni":13,"provincia":"Girona","municipio":"Begur","center_latitude":41.9537345,"center_longitude":3.2081359},{"cod_ine_prov":46,"cod_ine_muni":54,"provincia":"Valencia","municipio":"Benetússer","center_latitude":39.4246532,"center_longitude":-0.397402899999975},{"cod_ine_prov":11,"cod_ine_muni":9,"provincia":"Cádiz","municipio":"Benaocaz","center_latitude":36.6995191,"center_longitude":-5.42126269999994},{"cod_ine_prov":18,"cod_ine_muni":29,"provincia":"Granada","municipio":"Benamaurel","center_latitude":37.6091333,"center_longitude":-2.69921350000004},{"cod_ine_prov":22,"cod_ine_muni":54,"provincia":"Huesca","municipio":"Benasque","center_latitude":42.6051405,"center_longitude":0.523973100000035},{"cod_ine_prov":3,"cod_ine_muni":24,"provincia":"Alicante","municipio":"Benejúzar","center_latitude":38.0783908,"center_longitude":-0.838445200000024},{"cod_ine_prov":12,"cod_ine_muni":26,"provincia":"Castellón","municipio":"Benasal","center_latitude":40.3782842,"center_longitude":-0.137135599999965},{"cod_ine_prov":21,"cod_ine_muni":12,"provincia":"Huelva","municipio":"Berrocal","center_latitude":37.6088785,"center_longitude":-6.5424931},{"cod_ine_prov":10,"cod_ine_muni":29,"provincia":"Cáceres","municipio":"Berzocana","center_latitude":39.4372354,"center_longitude":-5.46202100000005},{"cod_ine_prov":31,"cod_ine_muni":905,"provincia":"Navarra","municipio":"Beriáin","center_latitude":42.7337949,"center_longitude":-1.64533340000003},{"cod_ine_prov":50,"cod_ine_muni":10,"provincia":"Zaragoza","municipio":"Alberite de San Juan","center_latitude":41.8196225,"center_longitude":-1.47028030000001},{"cod_ine_prov":2,"cod_ine_muni":17,"provincia":"Albacete","municipio":"Bogarra","center_latitude":38.5813761,"center_longitude":-2.21422129999996},{"cod_ine_prov":2,"cod_ine_muni":19,"provincia":"Albacete","municipio":"Bonillo (El)","center_latitude":38.9507345,"center_longitude":-2.53959839999993},{"cod_ine_prov":24,"cod_ine_muni":20,"provincia":"León","municipio":"Boca de Huérgano","center_latitude":42.9738642,"center_longitude":-4.92752940000003},{"cod_ine_prov":15,"cod_ine_muni":11,"provincia":"A Coruña","municipio":"Boiro","center_latitude":42.65,"center_longitude":-8.89999999999998},{"cod_ine_prov":46,"cod_ine_muni":74,"provincia":"Valencia","municipio":"Bonrepòs i Mirambell","center_latitude":39.5184653,"center_longitude":-0.36486130000003},{"cod_ine_prov":42,"cod_ine_muni":43,"provincia":"Soria","municipio":"Burgo de Osma-Ciudad de Osma","center_latitude":41.5876342,"center_longitude":-3.06658029999994},{"cod_ine_prov":6,"cod_ine_muni":22,"provincia":"Badajoz","municipio":"Burguillos del Cerro","center_latitude":38.3784834,"center_longitude":-6.58930190000001},{"cod_ine_prov":6,"cod_ine_muni":23,"provincia":"Badajoz","municipio":"Cabeza del Buey","center_latitude":38.7212337,"center_longitude":-5.21946490000005},{"cod_ine_prov":10,"cod_ine_muni":33,"provincia":"Cáceres","municipio":"Cabañas del Castillo","center_latitude":39.5475648,"center_longitude":-5.51164560000007},{"cod_ine_prov":15,"cod_ine_muni":14,"provincia":"A Coruña","municipio":"Cabana de Bergantiños","center_latitude":43.2191667,"center_longitude":-8.98000000000002},{"cod_ine_prov":8,"cod_ine_muni":105,"provincia":"Barcelona","municipio":"Llagosta (La)","center_latitude":41.5132133,"center_longitude":2.19324619999998},{"cod_ine_prov":13,"cod_ine_muni":27,"provincia":"Ciudad Real","municipio":"Calzada de Calatrava","center_latitude":38.7048735,"center_longitude":-3.77729569999997},{"cod_ine_prov":45,"cod_ine_muni":30,"provincia":"Toledo","municipio":"Calzada de Oropesa","center_latitude":39.8980268,"center_longitude":-5.27895920000003},{"cod_ine_prov":42,"cod_ine_muni":48,"provincia":"Soria","municipio":"Caltojar","center_latitude":41.4025437,"center_longitude":-2.76414249999993},{"cod_ine_prov":25,"cod_ine_muni":62,"provincia":"Lleida","municipio":"Camarasa","center_latitude":41.8719816,"center_longitude":0.874651200000017},{"cod_ine_prov":6,"cod_ine_muni":28,"provincia":"Badajoz","municipio":"Campanario","center_latitude":38.8633456,"center_longitude":-5.61779430000001},{"cod_ine_prov":10,"cod_ine_muni":41,"provincia":"Cáceres","municipio":"Caminomorisco","center_latitude":40.3234759,"center_longitude":-6.29046619999997},{"cod_ine_prov":15,"cod_ine_muni":16,"provincia":"A Coruña","municipio":"Camariñas","center_latitude":43.12862,"center_longitude":-9.1849287},{"cod_ine_prov":36,"cod_ine_muni":6,"provincia":"Pontevedra","municipio":"Cambados","center_latitude":42.5137987,"center_longitude":-8.81289249999998},{"cod_ine_prov":3,"cod_ine_muni":50,"provincia":"Alicante","municipio":"Campello (el)","center_latitude":38.4289188,"center_longitude":-0.397887099999934},{"cod_ine_prov":44,"cod_ine_muni":174,"provincia":"Teruel","municipio":"Orihuela del Tremedal","center_latitude":40.5505781,"center_longitude":-1.64971639999999},{"cod_ine_prov":29,"cod_ine_muni":35,"provincia":"Málaga","municipio":"Cañete la Real","center_latitude":36.951459,"center_longitude":-5.02430830000003},{"cod_ine_prov":33,"cod_ine_muni":11,"provincia":"Asturias","municipio":"Cangas del Narcea","center_latitude":43.1770574,"center_longitude":-6.54912850000005},{"cod_ine_prov":33,"cod_ine_muni":12,"provincia":"Asturias","municipio":"Cangas de Onís","center_latitude":43.3485027,"center_longitude":-5.12696719999997},{"cod_ine_prov":14,"cod_ine_muni":73,"provincia":"Córdoba","municipio":"Villaviciosa de Córdoba","center_latitude":38.0759755,"center_longitude":-5.01421400000004},{"cod_ine_prov":33,"cod_ine_muni":76,"provincia":"Asturias","municipio":"Villaviciosa","center_latitude":43.483333,"center_longitude":-5.43333299999995},{"cod_ine_prov":9,"cod_ine_muni":195,"provincia":"Burgos","municipio":"Llano de Bureba","center_latitude":42.6243646,"center_longitude":-3.45909259999996},{"cod_ine_prov":16,"cod_ine_muni":82,"provincia":"Cuenca","municipio":"Enguídanos","center_latitude":39.6731928,"center_longitude":-1.60838790000003},{"cod_ine_prov":4,"cod_ine_muni":32,"provincia":"Almería","municipio":"Carboneras","center_latitude":36.996586,"center_longitude":-1.89501169999994},{"cod_ine_prov":14,"cod_ine_muni":16,"provincia":"Córdoba","municipio":"Cardeña","center_latitude":38.2704645,"center_longitude":-4.32372980000002},{"cod_ine_prov":2,"cod_ine_muni":20,"provincia":"Albacete","municipio":"Carcelén","center_latitude":39.1018859,"center_longitude":-1.30889139999999},{"cod_ine_prov":19,"cod_ine_muni":67,"provincia":"Guadalajara","municipio":"Cardoso de la Sierra (El)","center_latitude":41.0986375,"center_longitude":-3.46434049999993},{"cod_ine_prov":15,"cod_ine_muni":19,"provincia":"A Coruña","municipio":"Carballo","center_latitude":43.2121679,"center_longitude":-8.69104140000002},{"cod_ine_prov":15,"cod_ine_muni":901,"provincia":"A Coruña","municipio":"Cariño","center_latitude":43.7326479,"center_longitude":-7.87776629999996},{"cod_ine_prov":50,"cod_ine_muni":74,"provincia":"Zaragoza","municipio":"Caspe","center_latitude":41.2339967,"center_longitude":-0.0440777000000026},{"cod_ine_prov":33,"cod_ine_muni":15,"provincia":"Asturias","municipio":"Caso","center_latitude":43.1833333,"center_longitude":-5.35000000000002},{"cod_ine_prov":9,"cod_ine_muni":77,"provincia":"Burgos","municipio":"Cascajares de Bureba","center_latitude":42.6790352,"center_longitude":-3.2373953},{"cod_ine_prov":10,"cod_ine_muni":60,"provincia":"Cáceres","municipio":"Castañar de Ibor","center_latitude":39.6278048,"center_longitude":-5.41654310000001},{"cod_ine_prov":44,"cod_ine_muni":71,"provincia":"Teruel","municipio":"Castellote","center_latitude":40.8004292,"center_longitude":-0.320274499999982},{"cod_ine_prov":25,"cod_ine_muni":68,"provincia":"Lleida","municipio":"Castellnou de Seana","center_latitude":41.6446866,"center_longitude":0.967531799999961},{"cod_ine_prov":12,"cod_ine_muni":40,"provincia":"Castellón","municipio":"Castellón de la Plana/Castelló de la Plana","center_latitude":39.999199,"center_longitude":0.0258000000000038},{"cod_ine_prov":18,"cod_ine_muni":46,"provincia":"Granada","municipio":"Castril","center_latitude":37.7957299,"center_longitude":-2.77908839999998},{"cod_ine_prov":41,"cod_ine_muni":27,"provincia":"Sevilla","municipio":"Castilblanco de los Arroyos","center_latitude":37.6745886,"center_longitude":-5.98929989999999},{"cod_ine_prov":33,"cod_ine_muni":16,"provincia":"Asturias","municipio":"Castrillón","center_latitude":43.55,"center_longitude":-5.96666670000002},{"cod_ine_prov":37,"cod_ine_muni":96,"provincia":"Salamanca","municipio":"Castillejo de Martín Viejo","center_latitude":40.7003683,"center_longitude":-6.64566960000002},{"cod_ine_prov":33,"cod_ine_muni":17,"provincia":"Asturias","municipio":"Castropol","center_latitude":43.5281233,"center_longitude":-7.03011860000004},{"cod_ine_prov":39,"cod_ine_muni":20,"provincia":"Cantabria","municipio":"Castro-Urdiales","center_latitude":43.3827751,"center_longitude":-3.21956999999998},{"cod_ine_prov":6,"cod_ine_muni":36,"provincia":"Badajoz","municipio":"Castuera","center_latitude":38.7225721,"center_longitude":-5.54551679999997},{"cod_ine_prov":19,"cod_ine_muni":86,"provincia":"Guadalajara","municipio":"Cifuentes","center_latitude":40.7865727,"center_longitude":-2.6227877},{"cod_ine_prov":10,"cod_ine_muni":64,"provincia":"Cáceres","municipio":"Cilleros","center_latitude":40.1136238,"center_longitude":-6.79215629999999},{"cod_ine_prov":30,"cod_ine_muni":19,"provincia":"Murcia","municipio":"Cieza","center_latitude":38.2390671,"center_longitude":-1.41876750000006},{"cod_ine_prov":50,"cod_ine_muni":83,"provincia":"Zaragoza","municipio":"Cinco Olivas","center_latitude":41.3376715,"center_longitude":-0.37125489999994},{"cod_ine_prov":25,"cod_ine_muni":76,"provincia":"Lleida","municipio":"Cogul (El)","center_latitude":41.4679667,"center_longitude":0.689415599999961},{"cod_ine_prov":5,"cod_ine_muni":63,"provincia":"Ávila","municipio":"Collado del Mirón","center_latitude":40.5527944,"center_longitude":-5.35388599999999},{"cod_ine_prov":11,"cod_ine_muni":14,"provincia":"Cádiz","municipio":"Conil de la Frontera","center_latitude":36.2767507,"center_longitude":-6.08843560000003},{"cod_ine_prov":29,"cod_ine_muni":45,"provincia":"Málaga","municipio":"Cómpeta","center_latitude":36.8329954,"center_longitude":-3.97487230000002},{"cod_ine_prov":9,"cod_ine_muni":109,"provincia":"Burgos","municipio":"Condado de Treviño","center_latitude":42.7348963,"center_longitude":-2.74691029999997},{"cod_ine_prov":25,"cod_ine_muni":145,"provincia":"Lleida","municipio":"Nalec","center_latitude":41.5606504,"center_longitude":1.11619259999998},{"cod_ine_prov":21,"cod_ine_muni":28,"provincia":"Huelva","municipio":"Cumbres de San Bartolomé","center_latitude":38.0769117,"center_longitude":-6.74333630000001},{"cod_ine_prov":21,"cod_ine_muni":29,"provincia":"Huelva","municipio":"Cumbres Mayores","center_latitude":38.0637014,"center_longitude":-6.64707410000005},{"cod_ine_prov":13,"cod_ine_muni":39,"provincia":"Ciudad Real","municipio":"Daimiel","center_latitude":39.0717865,"center_longitude":-3.61657270000001},{"cod_ine_prov":15,"cod_ine_muni":32,"provincia":"A Coruña","municipio":"Curtis","center_latitude":43.1243664,"center_longitude":-8.14630809999994},{"cod_ine_prov":43,"cod_ine_muni":901,"provincia":"Tarragona","municipio":"Deltebre","center_latitude":40.7194412,"center_longitude":0.70834739999998},{"cod_ine_prov":48,"cod_ine_muni":901,"provincia":"Vizcaya","municipio":"Derio","center_latitude":43.302,"center_longitude":-2.88183330000004},{"cod_ine_prov":3,"cod_ine_muni":63,"provincia":"Alicante","municipio":"Dénia","center_latitude":38.8403875,"center_longitude":0.108609300000012},{"cod_ine_prov":20,"cod_ine_muni":69,"provincia":"Guipúzcoa","municipio":"Donostia-San Sebastián","center_latitude":43.3208116,"center_longitude":-1.98444740000002},{"cod_ine_prov":14,"cod_ine_muni":23,"provincia":"Córdoba","municipio":"Dos Torres","center_latitude":38.4452447,"center_longitude":-4.89493219999997},{"cod_ine_prov":18,"cod_ine_muni":71,"provincia":"Granada","municipio":"Dúrcal","center_latitude":36.9879261,"center_longitude":-3.56616009999993},{"cod_ine_prov":6,"cod_ine_muni":44,"provincia":"Badajoz","municipio":"Don Benito","center_latitude":38.9543028,"center_longitude":-5.86175159999993},{"cod_ine_prov":15,"cod_ine_muni":34,"provincia":"A Coruña","municipio":"Dumbría","center_latitude":43.0093274,"center_longitude":-9.11520930000006},{"cod_ine_prov":3,"cod_ine_muni":64,"provincia":"Alicante","municipio":"Dolores","center_latitude":38.1405786,"center_longitude":-0.769299300000057},{"cod_ine_prov":2,"cod_ine_muni":30,"provincia":"Albacete","municipio":"Elche de la Sierra","center_latitude":38.4475948,"center_longitude":-2.04834260000007},{"cod_ine_prov":19,"cod_ine_muni":109,"provincia":"Guadalajara","municipio":"Embid","center_latitude":40.9725289,"center_longitude":-1.71196669999995},{"cod_ine_prov":46,"cod_ine_muni":117,"provincia":"Valencia","municipio":"Emperador","center_latitude":39.5543202,"center_longitude":-0.33969819999993},{"cod_ine_prov":6,"cod_ine_muni":45,"provincia":"Badajoz","municipio":"Entrín Bajo","center_latitude":38.7184494,"center_longitude":-6.7133963},{"cod_ine_prov":27,"cod_ine_muni":33,"provincia":"Lugo","municipio":"Muras","center_latitude":43.4678761,"center_longitude":-7.72300289999998},{"cod_ine_prov":21,"cod_ine_muni":32,"provincia":"Huelva","municipio":"Escacena del Campo","center_latitude":37.4103321,"center_longitude":-6.3895612},{"cod_ine_prov":48,"cod_ine_muni":30,"provincia":"Vizcaya","municipio":"Etxebarria","center_latitude":43.2541456,"center_longitude":-2.47735369999998},{"cod_ine_prov":48,"cod_ine_muni":34,"provincia":"Vizcaya","municipio":"Ermua","center_latitude":43.1866423,"center_longitude":-2.50260720000006},{"cod_ine_prov":7,"cod_ine_muni":19,"provincia":"Baleares","municipio":"Escorca","center_latitude":39.8211018,"center_longitude":2.86947839999993},{"cod_ine_prov":31,"cod_ine_muni":901,"provincia":"Navarra","municipio":"Barañain","center_latitude":42.8049184,"center_longitude":-1.68551950000005},{"cod_ine_prov":29,"cod_ine_muni":51,"provincia":"Málaga","municipio":"Estepona","center_latitude":36.4247747,"center_longitude":-5.144903},{"cod_ine_prov":41,"cod_ine_muni":41,"provincia":"Sevilla","municipio":"Estepa","center_latitude":37.2914668,"center_longitude":-4.87850630000003},{"cod_ine_prov":36,"cod_ine_muni":17,"provincia":"Pontevedra","municipio":"Estrada (A)","center_latitude":42.6895805,"center_longitude":-8.49130270000001},{"cod_ine_prov":22,"cod_ine_muni":107,"provincia":"Huesca","municipio":"Fanlo","center_latitude":42.5869871,"center_longitude":-0.0211813999999322},{"cod_ine_prov":9,"cod_ine_muni":223,"provincia":"Burgos","municipio":"Monasterio de la Sierra","center_latitude":42.0513104,"center_longitude":-3.19358899999997},{"cod_ine_prov":15,"cod_ine_muni":36,"provincia":"A Coruña","municipio":"Ferrol","center_latitude":43.4883872,"center_longitude":-8.22250929999996},{"cod_ine_prov":15,"cod_ine_muni":37,"provincia":"A Coruña","municipio":"Fisterra","center_latitude":42.9050668,"center_longitude":-9.26433789999999},{"cod_ine_prov":27,"cod_ine_muni":17,"provincia":"Lugo","municipio":"Folgoso do Courel","center_latitude":42.5888166,"center_longitude":-7.19546850000006},{"cod_ine_prov":16,"cod_ine_muni":163,"provincia":"Cuenca","municipio":"Portilla","center_latitude":40.2887079,"center_longitude":-2.08282380000003},{"cod_ine_prov":22,"cod_ine_muni":112,"provincia":"Huesca","municipio":"Fraga","center_latitude":41.5224254,"center_longitude":0.348926300000016},{"cod_ine_prov":33,"cod_ine_muni":23,"provincia":"Asturias","municipio":"Franco (El)","center_latitude":43.5570343,"center_longitude":-6.87387030000002},{"cod_ine_prov":38,"cod_ine_muni":13,"provincia":"Santa Cruz de Tenerife","municipio":"Frontera","center_latitude":27.7537946,"center_longitude":-18.0036424},{"cod_ine_prov":6,"cod_ine_muni":50,"provincia":"Badajoz","municipio":"Fregenal de la Sierra","center_latitude":38.1647577,"center_longitude":-6.65135299999997},{"cod_ine_prov":14,"cod_ine_muni":30,"provincia":"Córdoba","municipio":"Fuente Palmera","center_latitude":37.703189,"center_longitude":-5.10390389999998},{"cod_ine_prov":12,"cod_ine_muni":64,"provincia":"Castellón","municipio":"Fuentes de Ayódar","center_latitude":40.0205985,"center_longitude":-0.420784400000002},{"cod_ine_prov":37,"cod_ine_muni":149,"provincia":"Salamanca","municipio":"Garcirrey","center_latitude":40.9008683,"center_longitude":-6.13010410000004},{"cod_ine_prov":15,"cod_ine_muni":56,"provincia":"A Coruña","municipio":"Negreira","center_latitude":42.9095378,"center_longitude":-8.73624489999997},{"cod_ine_prov":46,"cod_ine_muni":60,"provincia":"Valencia","municipio":"Benifaió","center_latitude":39.2852448,"center_longitude":-0.427078100000017},{"cod_ine_prov":4,"cod_ine_muni":66,"provincia":"Almería","municipio":"Níjar","center_latitude":36.9657612,"center_longitude":-2.2065096},{"cod_ine_prov":21,"cod_ine_muni":52,"provincia":"Huelva","municipio":"Nerva","center_latitude":37.6951102,"center_longitude":-6.55063240000004},{"cod_ine_prov":21,"cod_ine_muni":53,"provincia":"Huelva","municipio":"Niebla","center_latitude":37.3601023,"center_longitude":-6.67920000000004},{"cod_ine_prov":23,"cod_ine_muni":64,"provincia":"Jaén","municipio":"Noalejo","center_latitude":37.5293938,"center_longitude":-3.65367519999995},{"cod_ine_prov":2,"cod_ine_muni":55,"provincia":"Albacete","municipio":"Nerpio","center_latitude":38.148006,"center_longitude":-2.30249649999996},{"cod_ine_prov":6,"cod_ine_muni":92,"provincia":"Badajoz","municipio":"Nogales","center_latitude":38.5865782,"center_longitude":-6.74902270000007},{"cod_ine_prov":22,"cod_ine_muni":114,"provincia":"Huesca","municipio":"Gistaín","center_latitude":42.5911619,"center_longitude":0.336059699999964},{"cod_ine_prov":33,"cod_ine_muni":24,"provincia":"Asturias","municipio":"Gijón","center_latitude":43.5452608,"center_longitude":-5.66192639999997},{"cod_ine_prov":18,"cod_ine_muni":86,"provincia":"Granada","municipio":"Gorafe","center_latitude":37.4790186,"center_longitude":-3.04427469999996},{"cod_ine_prov":18,"cod_ine_muni":87,"provincia":"Granada","municipio":"Granada","center_latitude":37.1764874,"center_longitude":-3.59792909999999},{"cod_ine_prov":21,"cod_ine_muni":37,"provincia":"Huelva","municipio":"Granado (El)","center_latitude":37.500107464753,"center_longitude":-7.37764186067453},{"cod_ine_prov":41,"cod_ine_muni":48,"provincia":"Sevilla","municipio":"Guadalcanal","center_latitude":38.0919805,"center_longitude":-5.82116510000003},{"cod_ine_prov":50,"cod_ine_muni":48,"provincia":"Zaragoza","municipio":"Berrueco","center_latitude":40.9907881,"center_longitude":-1.46691350000003},{"cod_ine_prov":19,"cod_ine_muni":130,"provincia":"Guadalajara","municipio":"Guadalajara","center_latitude":40.629816,"center_longitude":-3.16649310000003},{"cod_ine_prov":31,"cod_ine_muni":253,"provincia":"Navarra","municipio":"Bidaurreta","center_latitude":42.7746715,"center_longitude":-1.83609660000002},